RecordID,Date,Time,Latitude,Longitude,Altitude,Pitch,Roll,Yaw,GyroX,GyroY,GyroZ,MagX,MagY,Magz,AccX,AccY,AccZ,ImgID
0,16/04/2022,02:00:15,-25.11738712615341,28.25563607415282,422.14482840635003,-1.0421631336212158,-2.4558632373809814,2.9088144302368164,-0.04637949913740158,-0.025666680186986923,0.006491184234619141,0.0026374871376901865,-5.937127113342285,-11.765031814575195,0.01781199872493744,-0.006831999868154526,-0.007319999858736992,0
1,16/04/2022,02:00:15,-25.107734727933718,28.264623694302042,422.1408074174036,-1.0394880771636963,-2.473548650741577,2.9191246032714844,-0.0428185872733593,-0.02491958811879158,0.0048941755667328835,0.01709282211959362,-8.387714385986328,-15.82088851928711,0.01756799966096878,-0.00634399987757206,-0.008539999835193157,0
2,16/04/2022,02:00:15,-25.099020733463572,28.272815922154667,422.1371507618494,-1.0355010032653809,-2.4891979694366455,2.930082321166992,-0.03834836184978485,-0.021942395716905594,0.0059322454035282135,-0.07752560824155807,-9.584945678710938,-18.758543014526367,0.01756799966096878,-0.00634399987757206,-0.007563999854028225,0
3,16/04/2022,02:00:16,-25.089685263002945,28.281638122286157,422.1331791122539,-1.0319899320602417,-2.501096487045288,2.9365036487579346,-0.03782700002193451,-0.021394602954387665,0.0058291275054216385,0.0021675617899745703,-10.500029563903809,-20.566118240356445,0.01634800061583519,-0.0058559998869895935,-0.007075999863445759,0
4,16/04/2022,02:00:16,-25.08023753351522,28.290543278965057,422.129182845466,-1.0270755290985107,-2.507441520690918,2.937211513519287,-0.03352626413106918,-0.019091356545686722,0.005640881136059761,-0.01896107941865921,-10.537184715270996,-20.725461959838867,0.018300000578165054,-0.0058559998869895935,-0.008051999844610691,0
5,16/04/2022,02:00:16,-25.069529687353356,28.30063182793749,422.1246599921307,-1.0247716903686523,-2.5193493366241455,2.944258689880371,-0.031701281666755676,-0.016008056700229645,0.0034794295206665993,-0.18991966545581818,-10.639812469482422,-20.749441146850586,0.01634800061583519,-0.004879999905824661,-0.007075999863445759,0
6,16/04/2022,02:00:16,-25.060093038785695,28.3095199258841,422.12067278921137,-1.0240036249160767,-2.526510000228882,2.947718858718872,-0.02814595401287079,-0.01640099287033081,0.004383068531751633,-0.07352980226278305,-10.949991226196289,-20.970735549926758,0.01659199967980385,-0.004879999905824661,-0.007319999858736992,0
7,16/04/2022,02:00:17,-25.04985585061612,28.3191674697373,422.1163330855434,-1.0202581882476807,-2.5394296646118164,2.9594552516937256,-0.02660078927874565,-0.012970934621989727,0.0022937078028917313,-0.01841512881219387,-10.952818870544434,-21.095916748046875,0.016835998743772507,-0.004879999905824661,-0.008295999839901924,0
8,16/04/2022,02:00:17,-25.038758925283087,28.329599064595172,422.111659333064,-1.0209294557571411,-2.5496366024017334,2.9743704795837402,-0.02065926417708397,-0.012290374375879765,0.003452395088970661,0.1693241000175476,-10.88967227935791,-20.42634391784668,0.01878799870610237,-0.006831999868154526,-0.008051999844610691,0
9,16/04/2022,02:00:17,-25.027834805105467,28.339887456606693,422.1070426050995,-1.0204237699508667,-2.557142972946167,2.979104518890381,-0.022463645786046982,-0.012153739109635353,0.0025217561051249504,0.5395946502685547,-11.600409507751465,-20.710277557373047,0.01659199967980385,-0.005367999896407127,-0.0058559998869895935,0
10,16/04/2022,02:00:17,-25.013740382782792,28.353149308705913,422.10109184586196,-1.0208451747894287,-2.556209087371826,2.982701063156128,-0.018502753227949142,-0.010336682200431824,0.0036632753908634186,0.5837425589561462,-11.231294631958008,-20.969802856445312,0.015859998762607574,-0.0058559998869895935,-0.007075999863445759,0
11,16/04/2022,02:00:17,-25.00395381040917,28.36223567260378,422.0970622013398,-1.0233180522918701,-2.560349225997925,2.986344575881958,-0.019087236374616623,-0.010307589545845985,0.002380354329943657,0.4775804281234741,-10.976399421691895,-21.123552322387695,0.015615999698638916,-0.005123999901115894,-0.0058559998869895935,0
12,16/04/2022,02:00:18,-24.997245452221946,28.368548629136946,422.09422894937865,-1.0245890617370605,-2.559454917907715,2.9841063022613525,-0.018481191247701645,-0.009801695123314857,0.0019718827679753304,0.39271995425224304,-10.778057098388672,-21.147480010986328,0.01781199872493744,-0.0058559998869895935,-0.007563999854028225,0
13,16/04/2022,02:00:18,-24.99012737449695,28.375240747114507,422.09122262557275,-1.0257333517074585,-2.5555059909820557,2.978614568710327,-0.017043955624103546,-0.007987427525222301,0.004175790585577488,0.42482566833496094,-10.790550231933594,-21.26413917541504,0.01756799966096878,-0.0058559998869895935,-0.005123999901115894,0
14,16/04/2022,02:00:18,-24.983014555984234,28.38192615824977,422.0882226151266,-1.023098349571228,-2.5530974864959717,2.975083827972412,-0.013884669169783592,-0.009782041423022747,0.0027952417731285095,0.26192256808280945,-10.528755187988281,-21.14115333557129,0.017079999670386314,-0.00634399987757206,-0.007075999863445759,0
15,16/04/2022,02:00:18,-24.97589876551617,28.388682899040415,422.08514013872383,-1.0220744609832764,-2.554857015609741,2.976020097732544,-0.01436136569827795,-0.007529860362410545,0.002612958662211895,-0.01746506616473198,-11.054580688476562,-21.3075008392334,0.016835998743772507,-0.004635999910533428,-0.008051999844610691,0
16,16/04/2022,02:00:18,-24.96646988098888,28.39758184956393,422.0811289746142,-1.0215567350387573,-2.557786703109741,2.9793078899383545,-0.012647219002246857,-0.007188120856881142,0.0022110221907496452,0.27484142780303955,-11.087181091308594,-21.201866149902344,0.017324000597000122,-0.006587999872863293,-0.007319999858736992,0
17,16/04/2022,02:00:19,-24.95539343524204,28.407992609938876,422.0764679322071,-1.0242868661880493,-2.5523948669433594,2.9762637615203857,-0.011997420340776443,-0.00637383759021759,0.0007423385977745056,0.36819297075271606,-10.859404563903809,-20.66196632385254,0.01781199872493744,-0.004391999915242195,-0.007563999854028225,0
18,16/04/2022,02:00:19,-24.945229365833203,28.417527177899114,422.0721875733808,-1.0298129320144653,-2.55061411857605,2.974747657775879,-0.011152280494570732,-0.005000368691980839,0.0012332377955317497,0.7004268169403076,-10.762533187866211,-21.091604232788086,0.018055999651551247,-0.005367999896407127,-0.007807999849319458,0
19,16/04/2022,02:00:19,-24.93574285892564,28.42642746779062,422.0681755491212,-1.0307416915893555,-2.5539000034332275,2.979358673095703,-0.007823092862963676,-0.0061539821326732635,0.0023830486461520195,0.35260432958602905,-10.83226203918457,-20.948589324951172,0.01634800061583519,-0.005367999896407127,-0.008539999835193157,0
20,16/04/2022,02:00:19,-24.925399992813443,28.43616004200642,422.0638203956479,-1.032559871673584,-2.554677963256836,2.981529712677002,-0.010475541464984417,-0.005425972864031792,0.0019959332421422005,0.3028446435928345,-11.015660285949707,-21.13689422607422,0.016835998743772507,-0.005367999896407127,-0.008295999839901924,0
21,16/04/2022,02:00:19,-24.91448807346448,28.446403232445583,422.0592183083843,-1.0324283838272095,-2.5584657192230225,2.9888181686401367,-0.008157636970281601,-0.003932042978703976,0.0017522582784295082,0.3519684374332428,-11.033304214477539,-21.699987411499023,0.014883999712765217,-0.005367999896407127,-0.00878399983048439,0
22,16/04/2022,02:00:20,-24.899814170244618,28.46016545562095,422.0530377315007,-1.0356441736221313,-2.541125774383545,2.9704432487487793,-0.006823785603046417,-0.003309461288154125,0.0010016877204179764,0.17588794231414795,-11.218168258666992,-21.91539764404297,0.017324000597000122,-0.006587999872863293,-0.009027999825775623,0
23,16/04/2022,02:00:20,-24.88972007810192,28.469633739141962,422.04878240450853,-1.0338237285614014,-2.5431103706359863,2.9720027446746826,-0.0041076671332120895,-0.0037789391353726387,0.0014377860352396965,0.4830334484577179,-11.027338981628418,-21.09642791748047,0.01634800061583519,-0.0056119998916983604,-0.00951599981635809,0
24,16/04/2022,02:00:20,-24.875042588371947,28.483395637481525,422.0425996029908,-1.0337977409362793,-2.541506290435791,2.97326397895813,-0.004877688363194466,-0.001419820822775364,0.00010075978934764862,0.348410964012146,-11.130414009094238,-21.007429122924805,0.017079999670386314,-0.0058559998869895935,-0.009759999811649323,0
25,16/04/2022,02:00:20,-24.864939105957756,28.49286354796518,422.0383450578828,-1.0338035821914673,-2.540644884109497,2.978424072265625,-0.006985833868384361,-0.0009155664592981339,0.001190226525068283,0.43611422181129456,-11.323999404907227,-21.597936630249023,0.01512799970805645,-0.007319999858736992,-0.008051999844610691,0
26,16/04/2022,02:00:21,-24.851816656456986,28.505161156846746,422.0328189453466,-1.0349116325378418,-2.5343000888824463,2.973409652709961,-0.005917934700846672,-0.002707826904952526,0.00263229850679636,0.42760875821113586,-11.24176025390625,-21.20384979248047,0.016103999689221382,-0.005367999896407127,-0.007563999854028225,0
27,16/04/2022,02:00:21,-24.84081830647041,28.515465077058543,422.0281882817826,-1.034773588180542,-2.529350519180298,2.9717113971710205,-0.0036753416061401367,-0.002446242608129978,8.769426494836807e-05,0.29547372460365295,-11.205595016479492,-21.447702407836914,0.01659199967980385,-0.005367999896407127,-0.008539999835193157,0
28,16/04/2022,02:00:21,-24.830647672139456,28.524994477639403,422.0239081627911,-1.0355762243270874,-2.5280559062957764,2.9723472595214844,-0.0015655513852834702,-0.0025592967867851257,0.0003008367493748665,0.3253955543041229,-11.133753776550293,-20.81839370727539,0.01756799966096878,-0.004635999910533428,-0.007075999863445759,0
29,16/04/2022,02:00:21,-24.815938373643494,28.538768079087387,422.0177163260898,-1.043139100074768,-2.5305919647216797,2.9769132137298584,-0.00417635403573513,-0.0008568475022912025,0.0002579130232334137,0.2960679829120636,-11.214426040649414,-20.823654174804688,0.018055999651551247,-0.006587999872863293,-0.008295999839901924,0
30,16/04/2022,02:00:22,-24.805003869039997,28.54899697077267,422.01311970552445,-1.0435209274291992,-2.528393030166626,2.975023031234741,-0.0022341571748256683,0.0003295214846730232,0.00011901557445526123,0.3527756333351135,-11.0068998336792,-21.391754150390625,0.01634800061583519,-0.00634399987757206,-0.007075999863445759,0
31,16/04/2022,02:00:22,-24.790298054264227,28.5627607833895,422.00693082992206,-1.0443809032440186,-2.5237808227539062,2.973027467727661,-0.0034953374415636063,-0.0028657661750912666,-0.00021197739988565445,0.38835036754608154,-10.763529777526855,-21.395689010620117,0.017324000597000122,-0.0056119998916983604,-0.007319999858736992,0
32,16/04/2022,02:00:22,-24.779480212328163,28.57287774107398,422.00238358946297,-1.044064998626709,-2.5282974243164062,2.977519989013672,-0.002541879191994667,9.790901094675064e-05,0.0005858074873685837,0.25372767448425293,-11.043302536010742,-20.944631576538086,0.016103999689221382,-0.004635999910533428,-0.007563999854028225,0
33,16/04/2022,02:00:22,-24.768824523814622,28.582866087552137,421.99787530468046,-1.0442755222320557,-2.5269181728363037,2.9768621921539307,-0.0015684887766838074,0.000683899037539959,0.0006169052794575691,0.20075565576553345,-10.97114372253418,-20.991579055786133,0.015371999703347683,-0.004391999915242195,-0.006587999872863293,0
34,16/04/2022,02:00:23,-24.759033950654466,28.591972432299503,421.9937976387753,-1.0451302528381348,-2.5248019695281982,2.9739017486572266,-0.0027214456349611282,-0.00015248265117406845,-0.0011510634794831276,-0.06129279360175133,-10.542261123657227,-20.973417282104492,0.017324000597000122,-0.0058559998869895935,-0.00634399987757206,0
35,16/04/2022,02:00:23,-24.74949001243621,28.60091518431292,421.9897599531627,-1.048051118850708,-2.519409418106079,2.966804265975952,-0.0016485359519720078,-0.0010038502514362335,0.0012734076008200645,0.027381006628274918,-10.935214042663574,-21.49005126953125,0.016835998743772507,-0.005367999896407127,-0.007563999854028225,0
36,16/04/2022,02:00:23,-24.73976935703752,28.610033217850365,421.98566085720614,-1.0472623109817505,-2.520778179168701,2.967334270477295,-0.0020640045404434204,-0.00027658604085445404,-0.0008351225405931473,0.022833114489912987,-11.028364181518555,-21.359661102294922,0.015859998762607574,-0.004879999905824661,-0.008295999839901924,0
37,16/04/2022,02:00:23,-24.72859746899324,28.62043210721462,421.9809979157325,-1.0447620153427124,-2.526517152786255,2.973634958267212,-0.0028334036469459534,-0.0020335251465439796,0.0012994268909096718,-0.036301955580711365,-11.179888725280762,-21.1519775390625,0.01903199963271618,-0.004879999905824661,-0.00951599981635809,0
38,16/04/2022,02:00:24,-24.71835926898467,28.629999303706505,421.9766975950937,-1.0465670824050903,-2.5296099185943604,2.983159065246582,0.0006115380674600601,-0.002515321597456932,0.0003736112266778946,-0.21118371188640594,-10.655242919921875,-20.969894409179688,0.016103999689221382,-0.0058559998869895935,-0.008051999844610691,0
39,16/04/2022,02:00:24,-24.702820540051356,28.64450699212391,421.9701718754268,-1.0424941778182983,-2.5261263847351074,2.9751086235046387,-0.001701347529888153,-0.0006291558966040611,6.003864109516144e-05,-0.2826666831970215,-10.817559242248535,-21.16957664489746,0.01659199967980385,-0.005367999896407127,-0.007075999863445759,0
40,16/04/2022,02:00:24,-24.691945648603685,28.654653136394753,421.9656054257653,-1.0422570705413818,-2.5218780040740967,2.96868634223938,-0.0012331139296293259,0.0006148647516965866,-0.0005058692768216133,0.1706259548664093,-10.75618839263916,-20.63481903076172,0.015859998762607574,-0.006831999868154526,-0.00878399983048439,0
41,16/04/2022,02:00:24,-24.68076623458566,28.66509423301938,421.9608928519853,-1.0416914224624634,-2.5153770446777344,2.9638595581054688,0.00029435940086841583,-0.001802956685423851,0.0006888704374432564,0.04899748042225838,-10.984981536865234,-20.433082580566406,0.015615999698638916,-0.006099999882280827,-0.005367999896407127,0
42,16/04/2022,02:00:25,-24.67177317475883,28.673429836477705,421.95718011204525,-1.0407353639602661,-2.512253999710083,2.9614474773406982,-0.0020776167511940002,-0.0008691204711794853,0.0009432844817638397,0.19627124071121216,-10.928740501403809,-20.692123413085938,0.016103999689221382,-0.0058559998869895935,-0.007807999849319458,0
43,16/04/2022,02:00:25,-24.66231440779321,28.682271060777698,421.95319435309955,-1.040751338005066,-2.509572744369507,2.9594335556030273,-0.0005190819501876831,-0.0008912999182939529,3.061071038246155e-05,0.22203472256660461,-11.022565841674805,-20.77219581604004,0.01756799966096878,-0.005123999901115894,-0.007075999863445759,0
44,16/04/2022,02:00:25,-24.652836223129537,28.691135461161377,421.9491942481631,-1.043058156967163,-2.507373809814453,2.958010196685791,0.0007256455719470978,-0.000527556985616684,4.414934664964676e-05,0.20429101586341858,-10.889608383178711,-20.61197280883789,0.017079999670386314,-0.00634399987757206,-0.008051999844610691,0
45,16/04/2022,02:00:25,-24.64244180509411,28.700825681599333,421.94483427407135,-1.042124629020691,-2.510028123855591,2.9618279933929443,-0.0016302745789289474,-0.0022802166640758514,1.2122094631195068e-05,0.10486877709627151,-10.802949905395508,-20.917882919311523,0.01756799966096878,-0.004879999905824661,-0.006099999882280827,0
46,16/04/2022,02:00:25,-24.632828907963912,28.709755714659764,421.94082599622516,-1.0450164079666138,-2.513225793838501,2.966259479522705,0.0014644451439380646,0.0001981901004910469,0.0011921543627977371,0.17917868494987488,-10.79810619354248,-21.336498260498047,0.017079999670386314,-0.004391999915242195,-0.009271999821066856,0
47,16/04/2022,02:00:26,-24.6233276240274,28.718637513649025,421.93681450129384,-1.0460823774337769,-2.5191729068756104,2.9719927310943604,-7.596053183078766e-05,-0.002243385650217533,-2.7506612241268158e-05,0.21262198686599731,-10.624435424804688,-21.226213455200195,0.016835998743772507,-0.004391999915242195,-0.007807999849319458,0
48,16/04/2022,02:00:26,-24.61207291211333,28.72913779340597,421.9320756145219,-1.0455362796783447,-2.5235400199890137,2.9739301204681396,-0.0012540984898805618,-0.0006942646577954292,0.0012168651446700096,0.23801161348819733,-11.031652450561523,-20.83002281188965,0.015615999698638916,-0.005123999901115894,-0.006831999868154526,0
49,16/04/2022,02:00:26,-24.60157789470188,28.738889787879884,421.9277007631283,-1.0442153215408325,-2.523585557937622,2.9776511192321777,0.0012199878692626953,0.0002108560875058174,-0.0012307176366448402,0.09954846650362015,-11.010279655456543,-21.004276275634766,0.015615999698638916,-0.004879999905824661,-0.006831999868154526,0
50,16/04/2022,02:00:26,-24.591194533941234,28.748567011203466,421.92334578146136,-1.0486799478530884,-2.5257515907287598,2.9811654090881348,-4.5787543058395386e-05,-0.00012841448187828064,0.0008478900417685509,0.3368111848831177,-10.87198257446289,-21.02494239807129,0.016103999689221382,-0.005367999896407127,-0.007319999858736992,0
51,16/04/2022,02:00:26,-24.58159663694277,28.757499253217752,421.91932397163527,-1.0512090921401978,-2.526038885116577,2.9879777431488037,-0.0009278655052185059,-0.0016479017212986946,-0.0012058308348059654,0.5793627500534058,-11.13770580291748,-21.417753219604492,0.015859998762607574,-0.005367999896407127,-0.007807999849319458,0
52,16/04/2022,02:00:27,-24.57123196953679,28.767124351195392,421.9149947422352,-1.0503493547439575,-2.532564878463745,2.991179943084717,0.001544298604130745,0.0010733967646956444,-0.0008559264242649078,0.4278840124607086,-11.231334686279297,-21.247556686401367,0.01634800061583519,-0.004391999915242195,-0.006831999868154526,0
53,16/04/2022,02:00:27,-24.560142074627066,28.77746065123259,421.9103374515757,-1.0544697046279907,-2.5347981452941895,2.994560480117798,0.0008210968226194382,0.0004156874492764473,-0.00018536392599344254,0.4992854595184326,-11.172178268432617,-21.14466094970703,0.01634800061583519,-0.0056119998916983604,-0.008051999844610691,0
54,16/04/2022,02:00:27,-24.5491012805874,28.78773393357189,421.90571382406483,-1.0531139373779297,-2.534130096435547,2.9935832023620605,0.00047886744141578674,-0.0013780882582068443,0.0009792512282729149,0.14042358100414276,-10.84955883026123,-21.468278884887695,0.015371999703347683,-0.0056119998916983604,-0.008539999835193157,0
55,16/04/2022,02:00:27,-24.538860946204704,28.79725356134624,421.90142568185576,-1.0509432554244995,-2.5302693843841553,2.9834041595458984,0.0031942594796419144,-0.001347346231341362,0.0007350258529186249,0.072982557117939,-10.515021324157715,-20.914541244506836,0.018055999651551247,-0.004635999910533428,-0.008295999839901924,0
56,16/04/2022,02:00:28,-24.524606894158044,28.810504891251316,421.8954591446421,-1.0541203022003174,-2.531712532043457,2.9855661392211914,0.0013775341212749481,-0.0007792534306645393,-0.0005108434706926346,0.17461881041526794,-10.818967819213867,-21.2459659576416,0.015371999703347683,-0.006099999882280827,-0.008539999835193157,0
57,16/04/2022,02:00:28,-24.513652044523777,28.82068649626663,421.89087394252965,-1.0562655925750732,-2.529614210128784,2.9839446544647217,0.0006577391177415848,0.0004935907199978828,0.00044132210314273834,0.11446597427129745,-10.688304901123047,-21.657150268554688,0.019763998687267303,-0.00634399987757206,-0.0058559998869895935,0
58,16/04/2022,02:00:28,-24.502409423861973,28.831134881213,421.886167216857,-1.0590051412582397,-2.5277113914489746,2.9790639877319336,-0.0013983100652694702,-0.00045437924563884735,-0.0004707006737589836,0.20451819896697998,-11.15376091003418,-20.521583557128906,0.01634800061583519,-0.005367999896407127,-0.007075999863445759,0
59,16/04/2022,02:00:28,-24.49276129670107,28.840091746811304,421.8821335269577,-1.0580368041992188,-2.5252485275268555,2.978957176208496,-0.003252241760492325,-0.00014553498476743698,-0.0004589324817061424,0.4455322325229645,-10.986257553100586,-20.834020614624023,0.01781199872493744,-0.004147999919950962,-0.007563999854028225,0
60,16/04/2022,02:00:29,-24.48164231831906,28.850422556964364,421.87748348498,-1.059626579284668,-2.5273282527923584,2.9807190895080566,0.0015568826347589493,0.0005042199045419693,0.00016662105917930603,0.5503106117248535,-10.69990348815918,-20.961000442504883,0.016103999689221382,-0.00634399987757206,-0.009027999825775623,0
61,16/04/2022,02:00:29,-24.47053728396785,28.86072093722935,421.87284345611636,-1.0574610233306885,-2.525259017944336,2.977853775024414,0.0015923045575618744,0.0010956879705190659,0.0001696944236755371,0.5050206184387207,-10.836535453796387,-20.976856231689453,0.01634800061583519,-0.005367999896407127,-0.006587999872863293,0
62,16/04/2022,02:00:29,-24.458691153742308,28.871721012206507,421.86788773404834,-1.0585525035858154,-2.5268948078155518,2.979997396469116,-0.001058727502822876,0.001087673008441925,0.0004924498498439789,0.3282967507839203,-10.853559494018555,-21.116952896118164,0.01756799966096878,-0.0056119998916983604,-0.007319999858736992,0
63,16/04/2022,02:00:29,-24.44908279818567,28.880635028681837,421.8638714347322,-1.0603219270706177,-2.5292725563049316,2.9825258255004883,-0.0018845871090888977,0.0010830732062458992,0.00012980308383703232,0.38617849349975586,-10.864755630493164,-21.433792114257812,0.016835998743772507,-0.004879999905824661,-0.0058559998869895935,0
64,16/04/2022,02:00:29,-24.439429577466157,28.889593082033404,421.8598372135988,-1.060390591621399,-2.5268402099609375,2.9780571460723877,-0.0018827486783266068,-0.0010673273354768753,-0.00044944509863853455,0.5697485208511353,-11.076692581176758,-21.15880584716797,0.017079999670386314,-0.006099999882280827,-0.007807999849319458,0
65,16/04/2022,02:00:30,-24.42829882899218,28.89991342874416,421.8551857261989,-1.061787486076355,-2.5200836658477783,2.971998929977417,0.0032512117177248,0.00021350663155317307,0.0001061735674738884,0.5098963975906372,-11.011384963989258,-21.321117401123047,0.017324000597000122,-0.005123999901115894,-0.008051999844610691,0
66,16/04/2022,02:00:30,-24.41725418571512,28.91015421808596,421.8505707406953,-1.0620605945587158,-2.5210492610931396,2.9740374088287354,-0.0009346101433038712,-0.0007692752406001091,0.0010027233511209488,0.4008834660053253,-10.851855278015137,-21.224706649780273,0.01781199872493744,-0.0056119998916983604,-0.005367999896407127,0
67,16/04/2022,02:00:30,-24.407032368294065,28.919631050677737,421.8463028548436,-1.0594525337219238,-2.518780469894409,2.9672415256500244,-0.0018240176141262054,0.0010836990550160408,-0.0005202023312449455,0.7456464171409607,-10.89065933227539,-21.437965393066406,0.01659199967980385,-0.005123999901115894,-0.007563999854028225,0
68,16/04/2022,02:00:30,-24.392136734482236,28.933405583594162,421.84010576599064,-1.058764100074768,-2.505680799484253,2.953080415725708,-0.0006066374480724335,0.0007499232888221741,-0.0004645148292183876,0.5655000805854797,-10.896769523620605,-21.50947380065918,0.018300000578165054,-0.004879999905824661,-0.007075999863445759,0
69,16/04/2022,02:00:31,-24.383355313961072,28.941577135161776,421.8364114564252,-1.0599216222763062,-2.5109643936157227,2.963169574737549,0.0008852854371070862,-0.0010096961632370949,0.00011559203267097473,0.19587138295173645,-11.375473976135254,-21.560461044311523,0.016103999689221382,-0.006587999872863293,-0.006831999868154526,0
70,16/04/2022,02:00:31,-24.368449943157756,28.955370595988562,421.8301949032179,-1.0571520328521729,-2.512324571609497,2.9638214111328125,-0.0025084689259529114,-0.00037598423659801483,-0.00030123908072710037,0.32614848017692566,-11.080891609191895,-20.814970016479492,0.015859998762607574,-0.004635999910533428,-0.008539999835193157,0
71,16/04/2022,02:00:31,-24.355124168851848,28.967707677188407,421.82463370877366,-1.060744047164917,-2.5125789642333984,2.96649432182312,-0.0017206855118274689,0.0014453688636422157,0.0014765001833438873,0.1899859756231308,-10.99854850769043,-20.4145565032959,0.018055999651551247,-0.0058559998869895935,-0.007319999858736992,0
72,16/04/2022,02:00:31,-24.345486269474357,28.976631812519884,421.8206107653693,-1.0603728294372559,-2.507563591003418,2.9644227027893066,-0.001921098679304123,0.0008569546043872833,-7.261522114276886e-06,0.21840207278728485,-10.794589042663574,-20.881166458129883,0.017079999670386314,-0.0056119998916983604,-0.007075999863445759,0
73,16/04/2022,02:00:32,-24.33509791859842,28.986241917176557,421.8162781278881,-1.0565530061721802,-2.506911516189575,2.9606528282165527,-0.0012599285691976547,-0.0007008034735918045,-0.00033685751259326935,0.327291876077652,-10.803010940551758,-21.183191299438477,0.014639999717473984,-0.005123999901115894,-0.008051999844610691,0
74,16/04/2022,02:00:32,-24.32400510737178,28.996506323568465,421.8116523990969,-1.0541329383850098,-2.5044806003570557,2.95601487159729,-0.0003947019577026367,-0.0006778454408049583,0.0008717812597751617,0.32439664006233215,-10.622260093688965,-21.490270614624023,0.017324000597000122,-0.004635999910533428,-0.007075999863445759,0
75,16/04/2022,02:00:32,-24.313727671033877,29.006008816783304,421.807367267236,-1.0527546405792236,-2.5074987411499023,2.958364963531494,0.0019812099635601044,-0.00010545458644628525,0.0011761048808693886,0.22476951777935028,-10.944281578063965,-21.73167610168457,0.016103999689221382,-0.004391999915242195,-0.00951599981635809,0
76,16/04/2022,02:00:32,-24.303472033338082,29.01549439535961,421.8030918775596,-1.0542597770690918,-2.514030933380127,2.964935541152954,-0.0014134924858808517,0.0013535534963011742,0.00060273427516222,0.13978680968284607,-10.89292049407959,-21.80655288696289,0.018055999651551247,-0.0029279999434947968,-0.011223999783396721,0
77,16/04/2022,02:00:32,-24.293960362237197,29.02428961097645,421.79912563657854,-1.0552699565887451,-2.520970582962036,2.9730911254882812,0.001033661887049675,0.0001203250139951706,0.00032764580100774765,0.23495803773403168,-11.04164981842041,-21.19253921508789,0.01781199872493744,-0.005367999896407127,-0.006587999872863293,0
78,16/04/2022,02:00:33,-24.282640961037615,29.034726293122603,421.7944191921631,-1.054024577140808,-2.525672435760498,2.9784233570098877,0.00015411712229251862,-0.00019879452884197235,-0.0014408547431230545,0.13591401278972626,-10.88755989074707,-21.037296295166016,0.015859998762607574,-0.005123999901115894,-0.006831999868154526,0
79,16/04/2022,02:00:33,-24.27208454861334,29.044474936041524,421.7900218879652,-1.054276466369629,-2.5269525051116943,2.9808919429779053,-0.00012421980500221252,0.0004314230754971504,0.000981127843260765,0.17893919348716736,-10.996115684509277,-20.61768341064453,0.017079999670386314,-0.0058559998869895935,-0.007807999849319458,0
80,16/04/2022,02:00:33,-24.263141716200636,29.05271572150028,421.78632798681224,-1.057299017906189,-2.5249829292297363,2.97959303855896,0.0013807974755764008,-0.0011238083243370056,0.002171579748392105,0.46530523896217346,-11.0961332321167,-21.039011001586914,0.01756799966096878,-0.00634399987757206,-0.006587999872863293,0
81,16/04/2022,02:00:33,-24.25358063672919,29.061564059680133,421.7823288963476,-1.0564545392990112,-2.5202536582946777,2.9739716053009033,-0.0005295649170875549,-0.0008094776421785355,0.001823590137064457,0.22179879248142242,-11.091187477111816,-21.023616790771484,0.01659199967980385,-0.003903999924659729,-0.006587999872863293,0
82,16/04/2022,02:00:34,-24.24236459849441,29.071944145438525,421.7776332276677,-1.0559194087982178,-2.520670175552368,2.978046417236328,0.0005676615983247757,0.0010528778657317162,0.0008951732888817787,-0.006541783455759287,-11.155669212341309,-20.370145797729492,0.01781199872493744,-0.0056119998916983604,-0.007319999858736992,0
83,16/04/2022,02:00:34,-24.231925953850915,29.081578346656546,421.7732882342656,-1.0568437576293945,-2.5171127319335938,2.9765725135803223,-7.518939673900604e-05,0.00046039000153541565,0.0011459589004516602,0.31099653244018555,-11.033647537231445,-20.449851989746094,0.016835998743772507,-0.006831999868154526,-0.007319999858736992,0
84,16/04/2022,02:00:34,-24.22075290013074,29.091890797566062,421.76863805968594,-1.053336262702942,-2.51568603515625,2.9750261306762695,-1.432560384273529e-05,0.0008074808865785599,-0.0009462879970669746,0.5208763480186462,-10.99388313293457,-20.75686264038086,0.01659199967980385,-0.006587999872863293,-0.009027999825775623,0
85,16/04/2022,02:00:34,-24.208961481164494,29.102736882235337,421.7637479482357,-1.0511080026626587,-2.5226223468780518,2.9813284873962402,-0.0023133661597967148,-0.0009484048932790756,-0.0012426385655999184,0.287327378988266,-10.573210716247559,-21.108888626098633,0.016835998743772507,-0.005123999901115894,-0.004879999905824661,0
86,16/04/2022,02:00:34,-24.199833824627156,29.11114362495247,421.759972941898,-1.0511791706085205,-2.5217716693878174,2.975944757461548,0.00047020427882671356,-0.0006294399499893188,0.0002715699374675751,0.4679322838783264,-10.693063735961914,-20.837766647338867,0.01634800061583519,-0.0058559998869895935,-0.007563999854028225,0
87,16/04/2022,02:00:35,-24.1894376442982,29.120786103571554,421.755586287582,-1.048805594444275,-2.52260160446167,2.978177070617676,0.00041314586997032166,-0.002114660106599331,3.602355718612671e-06,0.5336349606513977,-10.946023941040039,-21.403987884521484,0.018055999651551247,-0.007319999858736992,-0.009271999821066856,0
88,16/04/2022,02:00:35,-24.178802344775807,29.13057826624552,421.7511838510748,-1.0459799766540527,-2.518965721130371,2.9746322631835938,-0.00023283250629901886,0.0009531360119581223,-0.0003069443628191948,0.4387565851211548,-11.157632827758789,-21.276216506958008,0.017324000597000122,-0.005367999896407127,-0.008539999835193157,0
89,16/04/2022,02:00:35,-24.169094659572135,29.139521021881233,421.74714765046093,-1.044540524482727,-2.518502712249756,2.97782301902771,9.079091250896454e-05,-0.0005672387778759003,-0.0022029830142855644,0.33640575408935547,-11.245139122009277,-21.025522232055664,0.015615999698638916,-0.00634399987757206,-0.008295999839901924,0
90,16/04/2022,02:00:35,-24.157902060385847,29.149837355669813,421.74249448930067,-1.0415714979171753,-2.518947124481201,2.9753646850585938,0.00039447471499443054,0.0012565990909934044,0.0011598467826843262,0.46225064992904663,-11.160650253295898,-20.954288482666016,0.016103999689221382,-0.0056119998916983604,-0.007319999858736992,0
91,16/04/2022,02:00:36,-24.146035101151725,29.16074294724595,421.737584643928,-1.0418771505355835,-2.523909330368042,2.9822423458099365,0.0007070004940032959,-0.0008846968412399292,0.0005204761400818825,0.5295913219451904,-10.134662628173828,-21.167490005493164,0.01634800061583519,-0.004879999905824661,-0.007807999849319458,0
92,16/04/2022,02:00:36,-24.134743731136858,29.17116880842454,421.73286898251126,-1.0418808460235596,-2.5272700786590576,2.978070020675659,0.002440446987748146,0.0020866254344582558,-0.0015529124066233635,0.18118678033351898,-10.385930061340332,-21.096853256225586,0.01659199967980385,-0.005367999896407127,-0.006587999872863293,0
93,16/04/2022,02:00:36,-24.12427259397876,29.180804340406898,421.7285183412144,-1.0437027215957642,-2.5213921070098877,2.97261905670166,-0.0011989306658506393,-3.454834222793579e-05,-0.00032014213502407074,0.18027915060520172,-10.554693222045898,-21.110736846923828,0.016835998743772507,-0.006099999882280827,-0.00878399983048439,0
94,16/04/2022,02:00:36,-24.11525195649648,29.189058976103997,421.7248129017084,-1.0424232482910156,-2.522822856903076,2.9727623462677,-0.0027311258018016815,0.0008659623563289642,-0.0021010683849453926,0.08315066248178482,-10.776679992675781,-21.32941246032715,0.018543999642133713,-0.006587999872863293,-0.007075999863445759,0
95,16/04/2022,02:00:36,-24.104809029491044,29.19871731909936,421.7204316464221,-1.0441101789474487,-2.519487142562866,2.9695374965667725,0.0024343375116586685,0.0002415478229522705,0.0006051044911146164,0.12521496415138245,-10.644096374511719,-21.77997589111328,0.016835998743772507,-0.005367999896407127,-0.006831999868154526,0
96,16/04/2022,02:00:37,-24.095057945284445,29.207681038499626,421.716389206553,-1.043059229850769,-2.52038311958313,2.968567132949829,4.9835070967674255e-05,-0.0003994479775428772,-0.0008619502186775208,0.35869380831718445,-10.572577476501465,-21.684734344482422,0.01756799966096878,-0.0056119998916983604,-0.008539999835193157,0
97,16/04/2022,02:00:37,-24.08448826350487,29.217406885459415,421.71199777919526,-1.0431904792785645,-2.5163092613220215,2.9681496620178223,-0.00032567791640758514,0.00020696409046649933,-0.00059551652520895,0.7922345399856567,-10.978792190551758,-22.04740333557129,0.01781199872493744,-0.00634399987757206,-0.009027999825775623,0
98,16/04/2022,02:00:37,-24.073957908685358,29.227085511492543,421.7076281296964,-1.0423310995101929,-2.5237085819244385,2.970005989074707,-0.001841224730014801,0.00020511262118816376,0.0006002942100167274,0.6677336096763611,-10.824554443359375,-21.56441307067871,0.015615999698638916,-0.007563999854028225,-0.009027999825775623,0
99,16/04/2022,02:00:37,-24.064144674179097,29.23610339765801,421.7035580648605,-1.0434993505477905,-2.5102548599243164,2.9536280632019043,-0.00034297071397304535,0.0005274498835206032,0.0006198324263095856,0.7441710233688354,-10.855132102966309,-21.167070388793945,0.016103999689221382,-0.0056119998916983604,-0.007319999858736992,0
100,16/04/2022,02:00:38,-24.053611570186842,29.245801682691862,421.69918048424,-1.0475629568099976,-2.5159263610839844,2.96205997467041,0.0024419259279966354,-0.002760450355708599,-0.0020790770649909973,0.9709905982017517,-10.944689750671387,-20.652868270874023,0.017079999670386314,-0.004879999905824661,-0.007319999858736992,0
101,16/04/2022,02:00:38,-24.04411409913025,29.25441133120828,421.6953436390084,-1.0492985248565674,-2.512995958328247,2.9591736793518066,-0.0009124763309955597,0.0023563355207443237,7.519032806158066e-05,0.2767351269721985,-10.999032974243164,-21.232669830322266,0.015615999698638916,-0.005367999896407127,-0.007075999863445759,0
102,16/04/2022,02:00:38,-24.03640210059755,29.261495128369138,421.6921457261807,-1.050691843032837,-2.5093657970428467,2.955591917037964,-0.000867718830704689,-0.0009535914286971092,0.0006884243339300156,0.35577794909477234,-11.098751068115234,-21.11777114868164,0.01756799966096878,-0.007075999863445759,-0.006587999872863293,0
103,16/04/2022,02:00:38,-24.03027839022976,29.2671272504554,421.6896010678695,-1.0500714778900146,-2.5107109546661377,2.9572057723999023,-0.0002525355666875839,-0.000331302173435688,-0.0002464344725012779,0.4142211377620697,-10.693352699279785,-21.271472930908203,0.017324000597000122,-0.005123999901115894,-0.008051999844610691,0
104,16/04/2022,02:00:38,-24.022957092994783,29.273847526108202,421.6865680327416,-1.051275610923767,-2.514808177947998,2.9619979858398438,0.0019061509519815445,-0.0015060650184750557,6.207823753356934e-05,0.5409858822822571,-10.681872367858887,-21.180301666259766,0.015371999703347683,-0.004879999905824661,-0.007319999858736992,0
105,16/04/2022,02:00:38,-24.01682639158605,29.279474044044925,421.684026312519,-1.0492850542068481,-2.515047788619995,2.9630818367004395,0.0006552804261445999,-0.0008420711383223534,0.00036848336458206177,0.4110472500324249,-10.88695240020752,-21.474346160888672,0.01659199967980385,-0.0058559998869895935,-0.007563999854028225,0
106,16/04/2022,02:00:39,-24.006937690727796,29.288641841899143,421.6798490252902,-1.0476936101913452,-2.5151970386505127,2.9616265296936035,-0.00022822804749011993,6.165914237499237e-05,-0.0002153078094124794,0.3803701102733612,-10.814595222473145,-21.372642517089844,0.017079999670386314,-0.007319999858736992,-0.008051999844610691,0
107,16/04/2022,02:00:39,-23.99715422625587,29.297620925899174,421.6757927857444,-1.0502822399139404,-2.52144193649292,2.9682071208953857,-0.00014062970876693726,-0.0014105308800935745,-0.0005059503018856049,0.47315356135368347,-10.86461353302002,-21.42446517944336,0.015615999698638916,-0.004879999905824661,-0.00634399987757206,0
108,16/04/2022,02:00:39,-23.986611743204126,29.307340550829423,421.67137808735356,-1.051381230354309,-2.520012855529785,2.9668312072753906,-0.0004860479384660721,0.0006752694025635719,0.0016395729035139084,0.1985490769147873,-10.936884880065918,-21.55398941040039,0.017079999670386314,-0.005367999896407127,-0.00878399983048439,0
109,16/04/2022,02:00:39,-23.977311291051937,29.31579027885109,421.6676058391133,-1.0507278442382812,-2.5213804244995117,2.968508243560791,-0.0013746041804552078,-0.0012011528015136719,-0.0017492137849330902,0.38315197825431824,-10.852726936340332,-21.612590789794922,0.017079999670386314,-0.007075999863445759,-0.007807999849319458,0
110,16/04/2022,02:00:39,-23.966069666335326,29.326167632374716,421.6628908400668,-1.0540423393249512,-2.518249750137329,2.965348482131958,0.0010005366057157516,0.0009343605488538742,0.0006326641887426376,0.7823667526245117,-11.075358390808105,-21.36628532409668,0.016835998743772507,-0.00634399987757206,-0.008539999835193157,0
111,16/04/2022,02:00:40,-23.95556470192411,29.335804454400026,421.6585381097525,-1.0506325960159302,-2.5196475982666016,2.9666812419891357,-0.0007956027984619141,-0.0017792880535125732,0.0006216708570718765,0.7783663868904114,-10.725156784057617,-21.29770851135254,0.01439599972218275,-0.004635999910533428,-0.006831999868154526,0
112,16/04/2022,02:00:40,-23.943650041815758,29.34669954538272,421.6536283986576,-1.0515064001083374,-2.5140135288238525,2.9590718746185303,-0.0024037472903728485,7.938221096992493e-05,-0.0002753008157014847,0.6846669316291809,-10.651391983032227,-21.125883102416992,0.018300000578165054,-0.005367999896407127,-0.007319999858736992,0
113,16/04/2022,02:00:40,-23.933840692831428,29.355684297002803,421.649559296365,-1.050823450088501,-2.5114831924438477,2.9551727771759033,3.98978590965271e-05,-0.0005314461886882782,3.0064955353736877e-05,0.8925660848617554,-10.473306655883789,-20.74660301208496,0.016103999689221382,-0.003415999934077263,-0.009759999811649323,0
114,16/04/2022,02:00:40,-23.92244433356764,29.366157444596027,421.6448250647661,-1.0501551628112793,-2.517505168914795,2.9587595462799072,0.000956634059548378,-0.0008368222042918205,-0.0011916309595108032,0.8097115159034729,-10.881710052490234,-21.773561477661133,0.017079999670386314,-0.007319999858736992,-0.009271999821066856,0
115,16/04/2022,02:00:41,-23.91118170733319,29.376476915542447,421.6401646680415,-1.0477622747421265,-2.516392707824707,2.9587979316711426,0.001261720433831215,0.0016063880175352097,0.0006407527253031731,0.884023129940033,-10.85184097290039,-21.741044998168945,0.015859998762607574,-0.0056119998916983604,-0.009027999825775623,0
116,16/04/2022,02:00:41,-23.89924616780938,29.38738224419081,421.63524884596677,-1.0472921133041382,-2.5191760063171387,2.961324453353882,0.00034560635685920715,0.0006901463493704796,0.0003356095403432846,0.4342293441295624,-10.906087875366211,-21.376972198486328,0.01439599972218275,-0.006587999872863293,-0.008539999835193157,0
117,16/04/2022,02:00:41,-23.888621610958648,29.397129225487255,421.6308288724717,-1.0458680391311646,-2.5219247341156006,2.9638774394989014,4.0592625737190247e-05,-0.0005314378067851067,-0.001191539689898491,0.5703299045562744,-10.083998680114746,-21.60643768310547,0.016103999689221382,-0.004635999910533428,-0.006831999868154526,0
118,16/04/2022,02:00:41,-23.878732715068445,29.406182894561102,421.6267428595482,-1.0457358360290527,-2.520612955093384,2.9602036476135254,0.0006515737622976303,-0.0002260059118270874,-0.0014966744929552078,0.6134522557258606,-10.447587966918945,-21.467721939086914,0.014639999717473984,-0.006587999872863293,-0.007319999858736992,0
119,16/04/2022,02:00:41,-23.868876155252817,29.415202956750196,421.62266467353845,-1.0498398542404175,-2.516798973083496,2.9548215866088867,-0.0005702003836631775,-0.00022593699395656586,3.0654482543468475e-05,0.6142290830612183,-10.524641036987305,-21.578947067260742,0.015859998762607574,-0.005123999901115894,-0.00951599981635809,0
120,16/04/2022,02:00:42,-23.85824932957602,29.42492570844717,421.61827291427636,-1.0480530261993408,-2.522681474685669,2.959512710571289,-0.002708202227950096,0.00038482900708913803,-0.0008853785693645477,0.3729381263256073,-11.041330337524414,-21.946908950805664,0.017324000597000122,-0.006587999872863293,-0.007075999863445759,0
121,16/04/2022,02:00:42,-23.84768946001118,29.434584281427778,421.6139068752356,-1.052640676498413,-2.5207345485687256,2.960069179534912,-0.0011809449642896652,-0.00022595375776290894,-0.0002740612253546715,0.6259779930114746,-11.37057113647461,-21.738780975341797,0.01781199872493744,-0.004391999915242195,-0.006587999872863293,0
122,16/04/2022,02:00:42,-23.834176155520108,29.44694117540875,421.6083225816122,-1.0506579875946045,-2.5176987648010254,2.959723949432373,0.0018725264817476273,-0.0017530303448438644,-0.0002741655334830284,1.0803529024124146,-11.26386833190918,-21.529348373413086,0.015371999703347683,-0.0056119998916983604,-0.009027999825775623,0
123,16/04/2022,02:00:42,-23.824247056980205,29.45601164326622,421.6042212259388,-1.051682710647583,-2.5169320106506348,2.960207939147949,-0.0005711521953344345,7.928162813186646e-05,-0.0005796859040856361,0.7119702696800232,-10.901102066040039,-21.120704650878906,0.01659199967980385,-0.004635999910533428,-0.008051999844610691,0
124,16/04/2022,02:00:43,-23.814304466407698,29.46510798486834,421.6000980501477,-1.0510900020599365,-2.519763708114624,2.965900182723999,3.9439648389816284e-05,0.000995449721813202,0.0006420109421014786,0.5245566964149475,-11.242491722106934,-20.97391700744629,0.018300000578165054,-0.004879999905824661,-0.008295999839901924,0
125,16/04/2022,02:00:43,-23.80257523346025,29.475798752169606,421.59529376256654,-1.051459789276123,-2.5201642513275146,2.9675254821777344,-0.0005710385739803314,0.0009953444823622704,-0.0005799205973744392,0.47532737255096436,-11.339573860168457,-21.88693618774414,0.017079999670386314,-0.004147999919950962,-0.009759999811649323,0
126,16/04/2022,02:00:43,-23.78850302132297,29.48864999410605,421.5894853685025,-1.054154396057129,-2.5190117359161377,2.9674203395843506,0.0009561553597450256,-0.001753486692905426,-0.0005796542391180992,0.6140327453613281,-11.250462532043457,-22.226696014404297,0.017324000597000122,-0.005367999896407127,-0.00878399983048439,0
127,16/04/2022,02:00:43,-23.778276709515637,29.498018378017672,421.5852377813308,-1.0549732446670532,-2.51935076713562,2.968646287918091,0.0021777674555778503,0.0009954692795872688,0.0009475927799940109,0.6953296661376953,-11.274473190307617,-20.765628814697266,0.016835998743772507,-0.004879999905824661,-0.007075999863445759,0
128,16/04/2022,02:00:44,-23.768395327340112,29.507039725802723,421.58115839271295,-1.054783582687378,-2.519944190979004,2.971249580383301,0.0006505921483039856,-0.0011423993855714798,0.0003367448225617409,0.5178665518760681,-11.329211235046387,-20.742029190063477,0.017079999670386314,-0.007319999858736992,-0.008051999844610691,0
129,16/04/2022,02:00:44,-23.758526510048817,29.516041736813523,421.5770908633851,-1.0561919212341309,-2.5182981491088867,2.9718210697174072,0.0009558573365211487,0.001300855539739132,0.00033663399517536163,0.5483831763267517,-11.16990852355957,-20.66704750061035,0.015615999698638916,-0.0058559998869895935,-0.006587999872863293,0
130,16/04/2022,02:00:44,-23.748614477533007,29.525091604756213,421.5729990483363,-1.0528340339660645,-2.5171427726745605,2.971951961517334,0.0018720366060733795,-0.0014480901882052422,0.00033662375062704086,0.6171290874481201,-11.253935813903809,-21.064783096313477,0.017079999670386314,-0.0056119998916983604,-0.009027999825775623,0
131,16/04/2022,02:00:44,-23.738669434209136,29.534170064046215,421.56887959161173,-1.0522589683532715,-2.5214405059814453,2.978043794631958,0.0009557753801345825,-0.0005319863557815552,0.0009476253762841225,0.5241343379020691,-11.450579643249512,-20.993518829345703,0.015859998762607574,-0.004879999905824661,-0.007319999858736992,0
132,16/04/2022,02:00:44,-23.72855726671634,29.543389443131147,421.5647254785739,-1.0513551235198975,-2.524135112762451,2.9842939376831055,-0.0027090776711702347,-0.001142679713666439,3.1597912311553955e-05,0.6618424654006958,-11.465606689453125,-20.480274200439453,0.01756799966096878,-0.006099999882280827,-0.007319999858736992,0
133,16/04/2022,02:00:45,-23.717200757639382,29.553748864854477,421.56004295966096,-1.0490964651107788,-2.5240044593811035,2.986488103866577,3.9830803871154785e-05,0.0013003703206777573,0.00033712107688188553,0.7874267101287842,-11.284829139709473,-21.08970832824707,0.01634800061583519,-0.006831999868154526,-0.006831999868154526,0
134,16/04/2022,02:00:45,-23.704464828402745,29.565373775053356,421.5547696182416,-1.0518033504486084,-2.5213186740875244,2.9848289489746094,0.0012617576867341995,-0.0005324212834239006,0.0006427103653550148,0.5968524813652039,-11.698270797729492,-20.8546085357666,0.016835998743772507,-0.0058559998869895935,-0.00634399987757206,0
135,16/04/2022,02:00:45,-23.693146454395947,29.57567072076501,421.55013052878525,-1.0540000200271606,-2.514679193496704,2.9809210300445557,0.0006510615348815918,0.0003838231787085533,-0.00027357228100299835,0.5245018601417542,-11.388813972473145,-20.519189834594727,0.019519999623298645,-0.004147999919950962,-0.006099999882280827,0
136,16/04/2022,02:00:45,-23.68186451414109,29.585926117050587,421.54550440520694,-1.0571808815002441,-2.5182526111602783,2.987309694290161,-0.00148693285882473,7.833261042833328e-05,3.197416663169861e-05,0.5064316987991333,-11.56922435760498,-20.616960525512695,0.016103999689221382,-0.004147999919950962,-0.007319999858736992,0
137,16/04/2022,02:00:46,-23.671274150506267,29.595576114854314,421.54113734134535,-1.0583102703094482,-2.5207290649414062,2.991166353225708,-0.00026509538292884827,0.0003835642710328102,3.226380795240402e-05,0.3510051667690277,-11.451228141784668,-20.68650245666504,0.01756799966096878,-0.005123999901115894,-0.008051999844610691,0
138,16/04/2022,02:00:46,-23.66056444041146,29.60536789730721,421.5366808202953,-1.0571174621582031,-2.5233442783355713,2.996046781539917,-0.0014867596328258514,0.0012995023280382156,0.0003376835957169533,0.6884899139404297,-11.335722923278809,-20.177099227905273,0.01659199967980385,-0.003903999924659729,-0.008295999839901924,0
139,16/04/2022,02:00:46,-23.650363270780954,29.614617865011642,421.5325013729603,-1.0565249919891357,-2.5298616886138916,3.0049188137054443,0.002483593299984932,7.777102291584015e-05,-0.00027295760810375214,0.8017129302024841,-11.262213706970215,-20.573116302490234,0.016103999689221382,-0.004879999905824661,-0.010491999797523022,0
140,16/04/2022,02:00:46,-23.639044941213598,29.624939154364736,421.5278468127695,-1.0580705404281616,-2.5279219150543213,3.0035109519958496,0.0015672538429498672,0.0012991875410079956,-0.0008838633075356483,0.9560237526893616,-11.3938627243042,-20.373079299926758,0.016103999689221382,-0.0056119998916983604,-0.008051999844610691,0
141,16/04/2022,02:00:46,-23.626224802032176,29.63657936761039,421.52259516954734,-1.058864712715149,-2.5243310928344727,3.0008864402770996,-0.0014874078333377838,0.000383119098842144,0.00033743586391210556,0.8277879357337952,-11.6427640914917,-21.015012741088867,0.017079999670386314,-0.007807999849319458,-0.008051999844610691,0
142,16/04/2022,02:00:47,-23.616348379158346,29.645569632726318,421.5185279693594,-1.0579893589019775,-2.5271248817443848,3.0047779083251953,-0.0011820662766695023,7.771234959363937e-05,3.230199217796326e-05,0.7440799474716187,-11.537786483764648,-20.738832473754883,0.01756799966096878,-0.006587999872863293,-0.007563999854028225,0
143,16/04/2022,02:00:47,-23.605669596124837,29.655278773206398,421.5141312398222,-1.0587800741195679,-2.5283610820770264,3.007302761077881,-0.0002659391611814499,7.765460759401321e-05,-0.0011892374604940414,0.826383113861084,-11.385069847106934,-20.695924758911133,0.015371999703347683,-0.006099999882280827,-0.00951599981635809,0
144,16/04/2022,02:00:47,-23.59572381231828,29.664304381688606,421.5100622484077,-1.0553128719329834,-2.5293631553649902,3.008357048034668,-0.0008773338049650192,-0.000532936304807663,-0.0008837664499878883,0.8027836084365845,-11.170735359191895,-21.15298843383789,0.015615999698638916,-0.004635999910533428,-0.007807999849319458,0
145,16/04/2022,02:00:47,-23.585116808048074,29.673992028621424,421.50565792229594,-1.0534354448318481,-2.531259059906006,3.009782075881958,-0.00026606954634189606,-0.00205999705940485,-0.0014944374561309814,0.6445201635360718,-11.39991283416748,-21.015892028808594,0.017324000597000122,-0.0056119998916983604,-0.008051999844610691,0
146,16/04/2022,02:00:48,-23.575148942698714,29.68305273755029,421.50155292873427,-1.0512688159942627,-2.5320334434509277,3.009925603866577,-0.003319844603538513,-0.0017542056739330292,-0.0002726651728153229,1.011924386024475,-11.674676895141602,-21.56453514099121,0.016103999689221382,-0.006831999868154526,-0.007075999863445759,0
147,16/04/2022,02:00:48,-23.565207799022005,29.692093552716578,421.4974694502788,-1.0517479181289673,-2.53377628326416,3.0119500160217285,3.982335329055786e-05,7.841549813747406e-05,0.00033823680132627487,0.9229766130447388,-11.460911750793457,-21.203128814697266,0.01756799966096878,-0.00634399987757206,-0.007807999849319458,0
148,16/04/2022,02:00:48,-23.55441943986808,29.701872281316508,421.4930430173284,-1.0536561012268066,-2.5277764797210693,3.0044658184051514,3.9832666516304016e-05,0.0006893500685691833,-0.0008834041655063629,0.960526168346405,-11.381152153015137,-21.255491256713867,0.016103999689221382,-0.0056119998916983604,-0.006831999868154526,0
149,16/04/2022,02:00:48,-23.54430114598558,29.711083113917027,421.4888634047305,-1.055237889289856,-2.5213005542755127,2.9963901042938232,-0.00179252028465271,7.861293852329254e-05,3.285892307758331e-05,0.9145181775093079,-11.310087203979492,-20.982311248779297,0.015371999703347683,-0.004879999905824661,-0.007319999858736992,0
150,16/04/2022,02:00:48,-23.534060945137487,29.720356926306007,421.48468215492386,-1.0530356168746948,-2.515920400619507,2.9891464710235596,-0.002708321437239647,-0.00022696331143379211,-0.00027233734726905823,0.7276185750961304,-11.19635009765625,-21.511560440063477,0.016103999689221382,-0.00634399987757206,-0.009027999825775623,0
151,16/04/2022,02:00:49,-23.524055563146913,29.72946420754445,421.48056129779616,-1.048546314239502,-2.519056558609009,2.992218494415283,0.0015678443014621735,0.0006893593817949295,0.0006437981501221657,0.7588105797767639,-11.03907585144043,-21.741798400878906,0.016103999689221382,-0.006099999882280827,-0.007563999854028225,0
152,16/04/2022,02:00:49,-23.51258533876859,29.739849338813084,421.47586995374843,-1.0498566627502441,-2.521916151046753,2.9914586544036865,-0.0008754264563322067,-0.0011430392041802406,-0.0011886591091752052,1.007624626159668,-11.018640518188477,-21.425437927246094,0.015615999698638916,-0.004879999905824661,-0.006587999872863293,0
153,16/04/2022,02:00:49,-23.501441325015115,29.74995212805109,421.471299430936,-1.0470526218414307,-2.517282009124756,2.983644723892212,0.0009569451212882996,0.0009950259700417519,-0.002410050481557846,0.9115025401115417,-11.374104499816895,-21.472047805786133,0.017324000597000122,-0.003903999924659729,-0.006587999872863293,0
154,16/04/2022,02:00:49,-23.490738075238188,29.759674398479167,421.46690141907214,-1.0478591918945312,-2.5167317390441895,2.982639789581299,0.00034564733505249023,0.001300162635743618,0.0012552021071314812,0.6628851890563965,-11.340017318725586,-21.30475616455078,0.014883999712765217,-0.005367999896407127,-0.007563999854028225,0
155,16/04/2022,02:00:50,-23.479987132732493,29.769442208765874,421.46246442235287,-1.046427607536316,-2.514389991760254,2.9829318523406982,0.0006508529186248779,7.803365588188171e-05,0.00033870991319417953,0.6351471543312073,-11.290081977844238,-21.146717071533203,0.018300000578165054,-0.007319999858736992,-0.006099999882280827,0
156,16/04/2022,02:00:50,-23.46849720047747,29.77983547580405,421.4577614495957,-1.0483120679855347,-2.5136497020721436,2.9785315990448,-0.000570736825466156,-0.0008383225649595261,0.00033859070390462875,0.8819425702095032,-11.255316734313965,-21.563993453979492,0.016103999689221382,-0.0056119998916983604,-0.007319999858736992,0
157,16/04/2022,02:00:50,-23.458436270034184,29.78900987657899,421.45359680928277,-1.0472546815872192,-2.517043113708496,2.981963634490967,0.0006509851664304733,7.791165262460709e-05,0.0003385618329048157,0.8614320755004883,-11.256010055541992,-21.346723556518555,0.016835998743772507,-0.007075999863445759,-0.00634399987757206,0
158,16/04/2022,02:00:50,-23.44887681288875,29.797632599187217,421.4496935297132,-1.0484741926193237,-2.5122992992401123,2.9759716987609863,-0.0027085021138191223,7.799454033374786e-05,0.0018654605373740196,0.9075443148612976,-10.952704429626465,-21.257734298706055,0.017324000597000122,-0.004391999915242195,-0.007807999849319458,0
159,16/04/2022,02:00:50,-23.438682860114813,29.806881027079385,421.44552520015935,-1.049638271331787,-2.5183732509613037,2.9777746200561523,-0.003318747505545616,-0.0014493167400360107,0.0003380170091986656,0.8420536518096924,-10.94973087310791,-21.79515266418457,0.01781199872493744,-0.006587999872863293,-0.00634399987757206,0
160,16/04/2022,02:00:51,-23.42793758755367,29.81660130726275,421.44112992029886,-1.049383282661438,-2.513411521911621,2.973508596420288,0.0012628082185983658,-0.0005330899730324745,0.0003381110727787018,0.9295032620429993,-10.92153549194336,-20.76897621154785,0.01878799870610237,-0.005367999896407127,-0.006587999872863293,0
161,16/04/2022,02:00:51,-23.416016308225057,29.82738177107549,421.43625687877767,-1.050532579421997,-2.508513927459717,2.9674017429351807,4.0978193283081055e-05,7.806997746229172e-05,-0.00027307774871587753,0.6084954738616943,-10.886213302612305,-20.96320152282715,0.015615999698638916,-0.006587999872863293,-0.008539999835193157,0
162,16/04/2022,02:00:51,-23.404440227958684,29.837893093480563,421.4314855812173,-1.0493394136428833,-2.509559154510498,2.9662091732025146,-0.0020965691655874252,-0.0002276003360748291,-0.00027325283735990524,0.6704393029212952,-10.879043579101562,-20.917142868041992,0.017324000597000122,-0.006831999868154526,-0.007807999849319458,0
163,16/04/2022,02:00:51,-23.392941861787826,29.848272214461606,421.42679454467384,-1.0503252744674683,-2.497818946838379,2.954331636428833,0.00034698285162448883,0.00038329511880874634,-0.000578567385673523,0.7062093615531921,-10.705379486083984,-20.929529190063477,0.015371999703347683,-0.005367999896407127,-0.006587999872863293,0
164,16/04/2022,02:00:52,-23.381787950548762,29.858363620864775,421.422221843553,-1.0502136945724487,-2.504753828048706,2.9605259895324707,0.0006524715572595596,0.0006886571645736694,0.0012540863826870918,0.8491227626800537,-10.710471153259277,-20.964929580688477,0.01756799966096878,-0.0058559998869895935,-0.006587999872863293,0
165,16/04/2022,02:00:52,-23.369753785120395,29.869275636821175,421.4172772960868,-1.0490881204605103,-2.5037155151367188,2.9573817253112793,0.000652264803647995,-0.0005334783345460892,3.244169056415558e-05,1.2164353132247925,-11.082109451293945,-21.235118865966797,0.01659199967980385,-0.004879999905824661,-0.00878399983048439,0
166,16/04/2022,02:00:52,-23.35893447074949,29.879032649343714,421.412872588194,-1.0459997653961182,-2.5104947090148926,2.96580171585083,-0.0014856625348329544,0.0009934324771165848,0.0012540733441710472,1.4018638134002686,-11.137303352355957,-21.208593368530273,0.018543999642133713,-0.005123999901115894,-0.007075999863445759,0
167,16/04/2022,02:00:52,-23.345575989660496,29.8911520076574,421.4073579272328,-1.0507707595825195,-2.5054030418395996,2.9612925052642822,4.139915108680725e-05,7.696077227592468e-05,0.0006431415677070618,0.9895159006118774,-11.452733993530273,-21.474451065063477,0.015859998762607574,-0.004147999919950962,-0.00951599981635809,0
168,16/04/2022,02:00:53,-23.334116726960083,29.901469698891223,421.4027113353193,-1.0497817993164062,-2.5116536617279053,2.9684789180755615,0.0006521698087453842,0.0006879987195134163,-0.0014948751777410507,1.2894455194473267,-11.36101245880127,-21.80380630493164,0.017324000597000122,-0.004635999910533428,-0.006831999868154526,0
169,16/04/2022,02:00:53,-23.32369854776949,29.910900051453048,421.3984439804178,-1.0504775047302246,-2.513383626937866,2.969572067260742,0.0012630149722099304,0.0006873691454529762,3.237184137105942e-05,0.9714611768722534,-11.06067180633545,-21.632017135620117,0.016103999689221382,-0.0056119998916983604,-0.008295999839901924,0
170,16/04/2022,02:00:53,-23.31158146698907,29.92183415762737,421.3934875616268,-1.051959753036499,-2.5186872482299805,2.974916458129883,0.001263139769434929,0.0006868112832307816,-0.0005785860121250153,1.0242946147918701,-11.413093566894531,-21.487459182739258,0.017079999670386314,-0.004879999905824661,-0.007319999858736992,0
171,16/04/2022,02:00:53,-23.300725439788458,29.931658735601317,421.3890325528352,-1.0524451732635498,-2.517564058303833,2.9743452072143555,4.139356315135956e-05,0.0012975884601473808,-0.0011893166229128838,1.051227331161499,-11.565024375915527,-22.0513916015625,0.018543999642133713,-0.00634399987757206,-0.007075999863445759,0
172,16/04/2022,02:00:54,-23.290613964397437,29.940780983070674,421.38490137722823,-1.0542964935302734,-2.511831283569336,2.967041254043579,0.0006517022848129272,7.570348680019379e-05,-0.001494474709033966,0.9333456158638,-11.147899627685547,-22.267742156982422,0.016835998743772507,-0.0058559998869895935,-0.00634399987757206,0
173,16/04/2022,02:00:54,-23.279049300993275,29.951206586304675,421.38019081906157,-1.0525174140930176,-2.512523889541626,2.966776132583618,-0.00026489607989788055,0.0009917840361595154,-0.00027281325310468674,0.7541330456733704,-11.059473037719727,-22.058761596679688,0.01781199872493744,-0.006587999872863293,-0.00878399983048439,0
174,16/04/2022,02:00:54,-23.266354294124717,29.96266646843553,421.3750027176421,-1.0526756048202515,-2.5166993141174316,2.966743230819702,-0.001181047409772873,-0.0005356157198548317,0.00033813249319791794,1.1998497247695923,-10.429574966430664,-21.992046356201172,0.01781199872493744,-0.005123999901115894,-0.007319999858736992,0
175,16/04/2022,02:00:54,-23.2554718834177,29.972513066362964,421.3705290180232,-1.0524650812149048,-2.5164194107055664,2.964141845703125,-0.0017917156219482422,0.00038079824298620224,-0.0011888854205608368,1.123746395111084,-11.006876945495605,-20.996225357055664,0.015859998762607574,-0.004879999905824661,-0.008051999844610691,0
176,16/04/2022,02:00:54,-23.24539585729124,29.981601143944996,421.36641470089046,-1.052682638168335,-2.5173356533050537,2.96520733833313,-0.001180918887257576,-0.002062469720840454,0.00033854320645332336,1.223824381828308,-11.130337715148926,-21.312803268432617,0.017324000597000122,-0.0056119998916983604,-0.005367999896407127,0
177,16/04/2022,02:00:55,-23.23533229753054,29.990648964066413,421.3623271948191,-1.0545084476470947,-2.5171239376068115,2.9657602310180664,0.0003461316227912903,0.0012972960248589516,-0.0002723298966884613,1.2098004817962646,-10.998230934143066,-21.339536666870117,0.01781199872493744,-0.004879999905824661,-0.00878399983048439,0
178,16/04/2022,02:00:55,-23.223359485042796,30.00144345269397,421.35743875941216,-1.0505961179733276,-2.5231714248657227,2.9736168384552,0.001872805878520012,0.00038076750934123993,0.0012547587975859642,1.1151938438415527,-11.04588508605957,-20.927047729492188,0.015859998762607574,-0.0056119998916983604,-0.007319999858736992,0
179,16/04/2022,02:00:55,-23.212561460456566,30.011179343354588,421.35302979189356,-1.0509510040283203,-2.5208966732025146,2.9719412326812744,-0.0005703698843717575,0.0012972336262464523,-0.00027221161872148514,0.9092767238616943,-11.376405715942383,-21.73080062866211,0.016835998743772507,-0.00634399987757206,-0.008295999839901924,0
180,16/04/2022,02:00:55,-23.20090397802239,30.021682286063108,421.34827158694486,-1.0489777326583862,-2.5236589908599854,2.9743216037750244,-0.0002649333328008652,0.00038076378405094147,-0.0002721305936574936,0.9146664142608643,-11.337427139282227,-20.558795928955078,0.01634800061583519,-0.005123999901115894,-0.007807999849319458,0
