RecordID,Date,Time,Latitude,Longitude,Altitude,Pitch,Roll,Yaw,GyroX,GyroY,GyroZ,MagX,MagY,MagZ,AccX,AccY,AccZ,ImgID
0,16-04-22,2:00:15,-25.11738713,28.25563607,422.1448284,-1.042163134,-2.455863237,2.90881443,-0.046379499,-0.02566668,0.006491184,0.002637487,-5.937127113,-11.76503181,0.017811999,-0.006832,-0.00732,0
1,16-04-22,2:00:15,-25.10773473,28.26462369,422.1408074,-1.039488077,-2.473548651,2.919124603,-0.042818587,-0.024919588,0.004894176,0.017092822,-8.387714386,-15.82088852,0.017568,-0.006344,-0.00854,0
2,16-04-22,2:00:15,-25.09902073,28.27281592,422.1371508,-1.035501003,-2.489197969,2.930082321,-0.038348362,-0.021942396,0.005932245,-0.077525608,-9.584945679,-18.75854301,0.017568,-0.006344,-0.007564,0
3,16-04-22,2:00:16,-25.08968526,28.28163812,422.1331791,-1.031989932,-2.501096487,2.936503649,-0.037827,-0.021394603,0.005829128,0.002167562,-10.50002956,-20.56611824,0.016348001,-0.005856,-0.007076,0
4,16-04-22,2:00:16,-25.08023753,28.29054328,422.1291828,-1.027075529,-2.507441521,2.937211514,-0.033526264,-0.019091357,0.005640881,-0.018961079,-10.53718472,-20.72546196,0.018300001,-0.005856,-0.008052,0
5,16-04-22,2:00:16,-25.06952969,28.30063183,422.12466,-1.02477169,-2.519349337,2.94425869,-0.031701282,-0.016008057,0.00347943,-0.189919665,-10.63981247,-20.74944115,0.016348001,-0.00488,-0.007076,0
6,16-04-22,2:00:16,-25.06009304,28.30951993,422.1206728,-1.024003625,-2.52651,2.947718859,-0.028145954,-0.016400993,0.004383069,-0.073529802,-10.94999123,-20.97073555,0.016592,-0.00488,-0.00732,0
7,16-04-22,2:00:17,-25.04985585,28.31916747,422.1163331,-1.020258188,-2.539429665,2.959455252,-0.026600789,-0.012970935,0.002293708,-0.018415129,-10.95281887,-21.09591675,0.016835999,-0.00488,-0.008296,0
8,16-04-22,2:00:17,-25.03875893,28.32959906,422.1116593,-1.020929456,-2.549636602,2.97437048,-0.020659264,-0.012290374,0.003452395,0.1693241,-10.88967228,-20.42634392,0.018787999,-0.006832,-0.008052,0
9,16-04-22,2:00:17,-25.02783481,28.33988746,422.1070426,-1.02042377,-2.557142973,2.979104519,-0.022463646,-0.012153739,0.002521756,0.53959465,-11.60040951,-20.71027756,0.016592,-0.005368,-0.005856,0
10,16-04-22,2:00:17,-25.01374038,28.35314931,422.1010918,-1.020845175,-2.556209087,2.982701063,-0.018502753,-0.010336682,0.003663275,0.583742559,-11.23129463,-20.96980286,0.015859999,-0.005856,-0.007076,0
11,16-04-22,2:00:17,-25.00395381,28.36223567,422.0970622,-1.023318052,-2.560349226,2.986344576,-0.019087236,-0.01030759,0.002380354,0.477580428,-10.97639942,-21.12355232,0.015616,-0.005124,-0.005856,0
12,16-04-22,2:00:18,-24.99724545,28.36854863,422.0942289,-1.024589062,-2.559454918,2.984106302,-0.018481191,-0.009801695,0.001971883,0.392719954,-10.7780571,-21.14748001,0.017811999,-0.005856,-0.007564,0
13,16-04-22,2:00:18,-24.99012737,28.37524075,422.0912226,-1.025733352,-2.555505991,2.978614569,-0.017043956,-0.007987428,0.004175791,0.424825668,-10.79055023,-21.26413918,0.017568,-0.005856,-0.005124,0
14,16-04-22,2:00:18,-24.98301456,28.38192616,422.0882226,-1.02309835,-2.553097486,2.975083828,-0.013884669,-0.009782041,0.002795242,0.261922568,-10.52875519,-21.14115334,0.01708,-0.006344,-0.007076,0
15,16-04-22,2:00:18,-24.97589877,28.3886829,422.0851401,-1.022074461,-2.554857016,2.976020098,-0.014361366,-0.00752986,0.002612959,-0.017465066,-11.05458069,-21.30750084,0.016835999,-0.004636,-0.008052,0
16,16-04-22,2:00:18,-24.96646988,28.39758185,422.081129,-1.021556735,-2.557786703,2.97930789,-0.012647219,-0.007188121,0.002211022,0.274841428,-11.08718109,-21.20186615,0.017324001,-0.006588,-0.00732,0
17,16-04-22,2:00:19,-24.95539344,28.40799261,422.0764679,-1.024286866,-2.552394867,2.976263762,-0.01199742,-0.006373838,0.000742339,0.368192971,-10.85940456,-20.66196632,0.017811999,-0.004392,-0.007564,0
18,16-04-22,2:00:19,-24.94522937,28.41752718,422.0721876,-1.029812932,-2.550614119,2.974747658,-0.01115228,-0.005000369,0.001233238,0.700426817,-10.76253319,-21.09160423,0.018056,-0.005368,-0.007808,0
19,16-04-22,2:00:19,-24.93574286,28.42642747,422.0681755,-1.030741692,-2.553900003,2.979358673,-0.007823093,-0.006153982,0.002383049,0.35260433,-10.83226204,-20.94858932,0.016348001,-0.005368,-0.00854,0
20,16-04-22,2:00:19,-24.92539999,28.43616004,422.0638204,-1.032559872,-2.554677963,2.981529713,-0.010475541,-0.005425973,0.001995933,0.302844644,-11.01566029,-21.13689423,0.016835999,-0.005368,-0.008296,0
21,16-04-22,2:00:19,-24.91448807,28.44640323,422.0592183,-1.032428384,-2.558465719,2.988818169,-0.008157637,-0.003932043,0.001752258,0.351968437,-11.03330421,-21.69998741,0.014884,-0.005368,-0.008784,0
22,16-04-22,2:00:20,-24.89981417,28.46016546,422.0530377,-1.035644174,-2.541125774,2.970443249,-0.006823786,-0.003309461,0.001001688,0.175887942,-11.21816826,-21.91539764,0.017324001,-0.006588,-0.009028,0
23,16-04-22,2:00:20,-24.88972008,28.46963374,422.0487824,-1.033823729,-2.543110371,2.972002745,-0.004107667,-0.003778939,0.001437786,0.483033448,-11.02733898,-21.09642792,0.016348001,-0.005612,-0.009516,0
24,16-04-22,2:00:20,-24.87504259,28.48339564,422.0425996,-1.033797741,-2.54150629,2.973263979,-0.004877688,-0.001419821,0.00010076,0.348410964,-11.13041401,-21.00742912,0.01708,-0.005856,-0.00976,0
25,16-04-22,2:00:20,-24.86493911,28.49286355,422.0383451,-1.033803582,-2.540644884,2.978424072,-0.006985834,-0.000915566,0.001190227,0.436114222,-11.3239994,-21.59793663,0.015128,-0.00732,-0.008052,0
26,16-04-22,2:00:21,-24.85181666,28.50516116,422.0328189,-1.034911633,-2.534300089,2.973409653,-0.005917935,-0.002707827,0.002632299,0.427608758,-11.24176025,-21.20384979,0.016104,-0.005368,-0.007564,0
27,16-04-22,2:00:21,-24.84081831,28.51546508,422.0281883,-1.034773588,-2.529350519,2.971711397,-0.003675342,-0.002446243,8.77E-05,0.295473725,-11.20559502,-21.44770241,0.016592,-0.005368,-0.00854,0
28,16-04-22,2:00:21,-24.83064767,28.52499448,422.0239082,-1.035576224,-2.528055906,2.97234726,-0.001565551,-0.002559297,0.000300837,0.325395554,-11.13375378,-20.81839371,0.017568,-0.004636,-0.007076,0
29,16-04-22,2:00:21,-24.81593837,28.53876808,422.0177163,-1.0431391,-2.530591965,2.976913214,-0.004176354,-0.000856848,0.000257913,0.296067983,-11.21442604,-20.82365417,0.018056,-0.006588,-0.008296,0
30,16-04-22,2:00:22,-24.80500387,28.54899697,422.0131197,-1.043520927,-2.52839303,2.975023031,-0.002234157,0.000329521,0.000119016,0.352775633,-11.00689983,-21.39175415,0.016348001,-0.006344,-0.007076,0
31,16-04-22,2:00:22,-24.79029805,28.56276078,422.0069308,-1.044380903,-2.523780823,2.973027468,-0.003495337,-0.002865766,-0.000211977,0.388350368,-10.76352978,-21.39568901,0.017324001,-0.005612,-0.00732,0
32,16-04-22,2:00:22,-24.77948021,28.57287774,422.0023836,-1.044064999,-2.528297424,2.977519989,-0.002541879,9.79E-05,0.000585807,0.253727674,-11.04330254,-20.94463158,0.016104,-0.004636,-0.007564,0
33,16-04-22,2:00:22,-24.76882452,28.58286609,421.9978753,-1.044275522,-2.526918173,2.976862192,-0.001568489,0.000683899,0.000616905,0.200755656,-10.97114372,-20.99157906,0.015372,-0.004392,-0.006588,0
34,16-04-22,2:00:23,-24.75903395,28.59197243,421.9937976,-1.045130253,-2.52480197,2.973901749,-0.002721446,-0.000152483,-0.001151063,-0.061292794,-10.54226112,-20.97341728,0.017324001,-0.005856,-0.006344,0
35,16-04-22,2:00:23,-24.74949001,28.60091518,421.98976,-1.048051119,-2.519409418,2.966804266,-0.001648536,-0.00100385,0.001273408,0.027381007,-10.93521404,-21.49005127,0.016835999,-0.005368,-0.007564,0
36,16-04-22,2:00:23,-24.73976936,28.61003322,421.9856609,-1.047262311,-2.520778179,2.96733427,-0.002064005,-0.000276586,-0.000835123,0.022833114,-11.02836418,-21.3596611,0.015859999,-0.00488,-0.008296,0
37,16-04-22,2:00:23,-24.72859747,28.62043211,421.9809979,-1.044762015,-2.526517153,2.973634958,-0.002833404,-0.002033525,0.001299427,-0.036301956,-11.17988873,-21.15197754,0.019032,-0.00488,-0.009516,0
38,16-04-22,2:00:24,-24.71835927,28.6299993,421.9766976,-1.046567082,-2.529609919,2.983159065,0.000611538,-0.002515322,0.000373611,-0.211183712,-10.65524292,-20.96989441,0.016104,-0.005856,-0.008052,0
39,16-04-22,2:00:24,-24.70282054,28.64450699,421.9701719,-1.042494178,-2.526126385,2.975108624,-0.001701348,-0.000629156,6.00E-05,-0.282666683,-10.81755924,-21.16957664,0.016592,-0.005368,-0.007076,0
40,16-04-22,2:00:24,-24.69194565,28.65465314,421.9656054,-1.042257071,-2.521878004,2.968686342,-0.001233114,0.000614865,-0.000505869,0.170625955,-10.75618839,-20.63481903,0.015859999,-0.006832,-0.008784,0
41,16-04-22,2:00:24,-24.68076623,28.66509423,421.9608929,-1.041691422,-2.515377045,2.963859558,0.000294359,-0.001802957,0.00068887,0.04899748,-10.98498154,-20.43308258,0.015616,-0.0061,-0.005368,0
42,16-04-22,2:00:25,-24.67177317,28.67342984,421.9571801,-1.040735364,-2.512254,2.961447477,-0.002077617,-0.00086912,0.000943284,0.196271241,-10.9287405,-20.69212341,0.016104,-0.005856,-0.007808,0
43,16-04-22,2:00:25,-24.66231441,28.68227106,421.9531944,-1.040751338,-2.509572744,2.959433556,-0.000519082,-0.0008913,3.06E-05,0.222034723,-11.02256584,-20.77219582,0.017568,-0.005124,-0.007076,0
44,16-04-22,2:00:25,-24.65283622,28.69113546,421.9491942,-1.043058157,-2.50737381,2.958010197,0.000725646,-0.000527557,4.41E-05,0.204291016,-10.88960838,-20.61197281,0.01708,-0.006344,-0.008052,0
45,16-04-22,2:00:25,-24.64244181,28.70082568,421.9448343,-1.042124629,-2.510028124,2.961827993,-0.001630275,-0.002280217,1.21E-05,0.104868777,-10.80294991,-20.91788292,0.017568,-0.00488,-0.0061,0
46,16-04-22,2:00:25,-24.63282891,28.70975571,421.940826,-1.045016408,-2.513225794,2.96625948,0.001464445,0.00019819,0.001192154,0.179178685,-10.79810619,-21.33649826,0.01708,-0.004392,-0.009272,0
47,16-04-22,2:00:26,-24.62332762,28.71863751,421.9368145,-1.046082377,-2.519172907,2.971992731,-7.60E-05,-0.002243386,-2.75E-05,0.212621987,-10.62443542,-21.22621346,0.016835999,-0.004392,-0.007808,0
48,16-04-22,2:00:26,-24.61207291,28.72913779,421.9320756,-1.04553628,-2.52354002,2.97393012,-0.001254098,-0.000694265,0.001216865,0.238011613,-11.03165245,-20.83002281,0.015616,-0.005124,-0.006832,0
49,16-04-22,2:00:26,-24.60157789,28.73888979,421.9277008,-1.044215322,-2.523585558,2.977651119,0.001219988,0.000210856,-0.001230718,0.099548467,-11.01027966,-21.00427628,0.015616,-0.00488,-0.006832,0
50,16-04-22,2:00:26,-24.59119453,28.74856701,421.9233458,-1.048679948,-2.525751591,2.981165409,-4.58E-05,-0.000128414,0.00084789,0.336811185,-10.87198257,-21.0249424,0.016104,-0.005368,-0.00732,0
51,16-04-22,2:00:26,-24.58159664,28.75749925,421.919324,-1.051209092,-2.526038885,2.987977743,-0.000927866,-0.001647902,-0.001205831,0.57936275,-11.1377058,-21.41775322,0.015859999,-0.005368,-0.007808,0
52,16-04-22,2:00:27,-24.57123197,28.76712435,421.9149947,-1.050349355,-2.532564878,2.991179943,0.001544299,0.001073397,-0.000855926,0.427884012,-11.23133469,-21.24755669,0.016348001,-0.004392,-0.006832,0
53,16-04-22,2:00:27,-24.56014207,28.77746065,421.9103375,-1.054469705,-2.534798145,2.99456048,0.000821097,0.000415687,-0.000185364,0.49928546,-11.17217827,-21.14466095,0.016348001,-0.005612,-0.008052,0
54,16-04-22,2:00:27,-24.54910128,28.78773393,421.9057138,-1.053113937,-2.534130096,2.993583202,0.000478867,-0.001378088,0.000979251,0.140423581,-10.84955883,-21.46827888,0.015372,-0.005612,-0.00854,0
55,16-04-22,2:00:27,-24.53886095,28.79725356,421.9014257,-1.050943255,-2.530269384,2.98340416,0.003194259,-0.001347346,0.000735026,0.072982557,-10.51502132,-20.91454124,0.018056,-0.004636,-0.008296,0
56,16-04-22,2:00:28,-24.52460689,28.81050489,421.8954591,-1.054120302,-2.531712532,2.985566139,0.001377534,-0.000779253,-0.000510843,0.17461881,-10.81896782,-21.24596596,0.015372,-0.0061,-0.00854,0
57,16-04-22,2:00:28,-24.51365204,28.8206865,421.8908739,-1.056265593,-2.52961421,2.983944654,0.000657739,0.000493591,0.000441322,0.114465974,-10.6883049,-21.65715027,0.019763999,-0.006344,-0.005856,0
58,16-04-22,2:00:28,-24.50240942,28.83113488,421.8861672,-1.059005141,-2.527711391,2.979063988,-0.00139831,-0.000454379,-0.000470701,0.204518199,-11.15376091,-20.52158356,0.016348001,-0.005368,-0.007076,0
59,16-04-22,2:00:28,-24.4927613,28.84009175,421.8821335,-1.058036804,-2.525248528,2.978957176,-0.003252242,-0.000145535,-0.000458932,0.445532233,-10.98625755,-20.83402061,0.017811999,-0.004148,-0.007564,0
60,16-04-22,2:00:29,-24.48164232,28.85042256,421.8774835,-1.059626579,-2.527328253,2.98071909,0.001556883,0.00050422,0.000166621,0.550310612,-10.69990349,-20.96100044,0.016104,-0.006344,-0.009028,0
61,16-04-22,2:00:29,-24.47053728,28.86072094,421.8728435,-1.057461023,-2.525259018,2.977853775,0.001592305,0.001095688,0.000169694,0.505020618,-10.83653545,-20.97685623,0.016348001,-0.005368,-0.006588,0
62,16-04-22,2:00:29,-24.45869115,28.87172101,421.8678877,-1.058552504,-2.526894808,2.979997396,-0.001058728,0.001087673,0.00049245,0.328296751,-10.85355949,-21.1169529,0.017568,-0.005612,-0.00732,0
63,16-04-22,2:00:29,-24.4490828,28.88063503,421.8638714,-1.060321927,-2.529272556,2.982525826,-0.001884587,0.001083073,0.000129803,0.386178493,-10.86475563,-21.43379211,0.016835999,-0.00488,-0.005856,0
64,16-04-22,2:00:29,-24.43942958,28.88959308,421.8598372,-1.060390592,-2.52684021,2.978057146,-0.001882749,-0.001067327,-0.000449445,0.569748521,-11.07669258,-21.15880585,0.01708,-0.0061,-0.007808,0
65,16-04-22,2:00:30,-24.42829883,28.89991343,421.8551857,-1.061787486,-2.520083666,2.97199893,0.003251212,0.000213507,0.000106174,0.509896398,-11.01138496,-21.3211174,0.017324001,-0.005124,-0.008052,0
66,16-04-22,2:00:30,-24.41725419,28.91015422,421.8505707,-1.062060595,-2.521049261,2.974037409,-0.00093461,-0.000769275,0.001002723,0.400883466,-10.85185528,-21.22470665,0.017811999,-0.005612,-0.005368,0
67,16-04-22,2:00:30,-24.40703237,28.91963105,421.8463029,-1.059452534,-2.51878047,2.967241526,-0.001824018,0.001083699,-0.000520202,0.745646417,-10.89065933,-21.43796539,0.016592,-0.005124,-0.007564,0
68,16-04-22,2:00:30,-24.39213673,28.93340558,421.8401058,-1.0587641,-2.505680799,2.953080416,-0.000606637,0.000749923,-0.000464515,0.565500081,-10.89676952,-21.5094738,0.018300001,-0.00488,-0.007076,0
69,16-04-22,2:00:31,-24.38335531,28.94157714,421.8364115,-1.059921622,-2.510964394,2.963169575,0.000885285,-0.001009696,0.000115592,0.195871383,-11.37547398,-21.56046104,0.016104,-0.006588,-0.006832,0
70,16-04-22,2:00:31,-24.36844994,28.9553706,421.8301949,-1.057152033,-2.512324572,2.963821411,-0.002508469,-0.000375984,-0.000301239,0.32614848,-11.08089161,-20.81497002,0.015859999,-0.004636,-0.00854,0
71,16-04-22,2:00:31,-24.35512417,28.96770768,421.8246337,-1.060744047,-2.512578964,2.966494322,-0.001720686,0.001445369,0.0014765,0.189985976,-10.99854851,-20.4145565,0.018056,-0.005856,-0.00732,0
72,16-04-22,2:00:31,-24.34548627,28.97663181,421.8206108,-1.060372829,-2.507563591,2.964422703,-0.001921099,0.000856955,-7.26E-06,0.218402073,-10.79458904,-20.88116646,0.01708,-0.005612,-0.007076,0
73,16-04-22,2:00:32,-24.33509792,28.98624192,421.8162781,-1.056553006,-2.506911516,2.960652828,-0.001259929,-0.000700803,-0.000336858,0.327291876,-10.80301094,-21.1831913,0.01464,-0.005124,-0.008052,0
74,16-04-22,2:00:32,-24.32400511,28.99650632,421.8116524,-1.054132938,-2.5044806,2.956014872,-0.000394702,-0.000677845,0.000871781,0.32439664,-10.62226009,-21.49027061,0.017324001,-0.004636,-0.007076,0
75,16-04-22,2:00:32,-24.31372767,29.00600882,421.8073673,-1.052754641,-2.507498741,2.958364964,0.00198121,-0.000105455,0.001176105,0.224769518,-10.94428158,-21.7316761,0.016104,-0.004392,-0.009516,0
76,16-04-22,2:00:32,-24.30347203,29.0154944,421.8030919,-1.054259777,-2.514030933,2.964935541,-0.001413492,0.001353553,0.000602734,0.13978681,-10.89292049,-21.80655289,0.018056,-0.002928,-0.011224,0
77,16-04-22,2:00:32,-24.29396036,29.02428961,421.7991256,-1.055269957,-2.520970583,2.973091125,0.001033662,0.000120325,0.000327646,0.234958038,-11.04164982,-21.19253922,0.017811999,-0.005368,-0.006588,0
78,16-04-22,2:00:33,-24.28264096,29.03472629,421.7944192,-1.054024577,-2.525672436,2.978423357,0.000154117,-0.000198795,-0.001440855,0.135914013,-10.88755989,-21.0372963,0.015859999,-0.005124,-0.006832,0
79,16-04-22,2:00:33,-24.27208455,29.04447494,421.7900219,-1.054276466,-2.526952505,2.980891943,-0.00012422,0.000431423,0.000981128,0.178939193,-10.99611568,-20.61768341,0.01708,-0.005856,-0.007808,0
80,16-04-22,2:00:33,-24.26314172,29.05271572,421.786328,-1.057299018,-2.524982929,2.979593039,0.001380797,-0.001123808,0.00217158,0.465305239,-11.09613323,-21.039011,0.017568,-0.006344,-0.006588,0
81,16-04-22,2:00:33,-24.25358064,29.06156406,421.7823289,-1.056454539,-2.520253658,2.973971605,-0.000529565,-0.000809478,0.00182359,0.221798792,-11.09118748,-21.02361679,0.016592,-0.003904,-0.006588,0
82,16-04-22,2:00:34,-24.2423646,29.07194415,421.7776332,-1.055919409,-2.520670176,2.978046417,0.000567662,0.001052878,0.000895173,-0.006541783,-11.15566921,-20.3701458,0.017811999,-0.005612,-0.00732,0
83,16-04-22,2:00:34,-24.23192595,29.08157835,421.7732882,-1.056843758,-2.517112732,2.976572514,-7.52E-05,0.00046039,0.001145959,0.310996532,-11.03364754,-20.44985199,0.016835999,-0.006832,-0.00732,0
84,16-04-22,2:00:34,-24.2207529,29.0918908,421.7686381,-1.053336263,-2.515686035,2.975026131,-1.43E-05,0.000807481,-0.000946288,0.520876348,-10.99388313,-20.75686264,0.016592,-0.006588,-0.009028,0
85,16-04-22,2:00:34,-24.20896148,29.10273688,421.7637479,-1.051108003,-2.522622347,2.981328487,-0.002313366,-0.000948405,-0.001242639,0.287327379,-10.57321072,-21.10888863,0.016835999,-0.005124,-0.00488,0
86,16-04-22,2:00:34,-24.19983382,29.11114362,421.7599729,-1.051179171,-2.521771669,2.975944757,0.000470204,-0.00062944,0.00027157,0.467932284,-10.69306374,-20.83776665,0.016348001,-0.005856,-0.007564,0
87,16-04-22,2:00:35,-24.18943764,29.1207861,421.7555863,-1.048805594,-2.522601604,2.978177071,0.000413146,-0.00211466,3.60E-06,0.533634961,-10.94602394,-21.40398788,0.018056,-0.00732,-0.009272,0
88,16-04-22,2:00:35,-24.17880234,29.13057827,421.7511839,-1.045979977,-2.518965721,2.974632263,-0.000232833,0.000953136,-0.000306944,0.438756585,-11.15763283,-21.27621651,0.017324001,-0.005368,-0.00854,0
89,16-04-22,2:00:35,-24.16909466,29.13952102,421.7471477,-1.044540524,-2.518502712,2.977823019,9.08E-05,-0.000567239,-0.002202983,0.336405754,-11.24513912,-21.02552223,0.015616,-0.006344,-0.008296,0
90,16-04-22,2:00:35,-24.15790206,29.14983736,421.7424945,-1.041571498,-2.518947124,2.975364685,0.000394475,0.001256599,0.001159847,0.46225065,-11.16065025,-20.95428848,0.016104,-0.005612,-0.00732,0
91,16-04-22,2:00:36,-24.1460351,29.16074295,421.7375846,-1.041877151,-2.52390933,2.982242346,0.000707,-0.000884697,0.000520476,0.529591322,-10.13466263,-21.16749001,0.016348001,-0.00488,-0.007808,0
92,16-04-22,2:00:36,-24.13474373,29.17116881,421.732869,-1.041880846,-2.527270079,2.978070021,0.002440447,0.002086625,-0.001552912,0.18118678,-10.38593006,-21.09685326,0.016592,-0.005368,-0.006588,0
93,16-04-22,2:00:36,-24.12427259,29.18080434,421.7285183,-1.043702722,-2.521392107,2.972619057,-0.001198931,-3.45E-05,-0.000320142,0.180279151,-10.55469322,-21.11073685,0.016835999,-0.0061,-0.008784,0
94,16-04-22,2:00:36,-24.11525196,29.18905898,421.7248129,-1.042423248,-2.522822857,2.972762346,-0.002731126,0.000865962,-0.002101068,0.083150662,-10.77667999,-21.32941246,0.018544,-0.006588,-0.007076,0
95,16-04-22,2:00:36,-24.10480903,29.19871732,421.7204316,-1.044110179,-2.519487143,2.969537497,0.002434338,0.000241548,0.000605104,0.125214964,-10.64409637,-21.77997589,0.016835999,-0.005368,-0.006832,0
96,16-04-22,2:00:37,-24.09505795,29.20768104,421.7163892,-1.04305923,-2.52038312,2.968567133,4.98E-05,-0.000399448,-0.00086195,0.358693808,-10.57257748,-21.68473434,0.017568,-0.005612,-0.00854,0
97,16-04-22,2:00:37,-24.08448826,29.21740689,421.7119978,-1.043190479,-2.516309261,2.968149662,-0.000325678,0.000206964,-0.000595517,0.79223454,-10.97879219,-22.04740334,0.017811999,-0.006344,-0.009028,0
98,16-04-22,2:00:37,-24.07395791,29.22708551,421.7076281,-1.0423311,-2.523708582,2.970005989,-0.001841225,0.000205113,0.000600294,0.66773361,-10.82455444,-21.56441307,0.015616,-0.007564,-0.009028,0
99,16-04-22,2:00:37,-24.06414467,29.2361034,421.7035581,-1.043499351,-2.51025486,2.953628063,-0.000342971,0.00052745,0.000619832,0.744171023,-10.8551321,-21.16707039,0.016104,-0.005612,-0.00732,0
100,16-04-22,2:00:38,-24.05361157,29.24580168,421.6991805,-1.047562957,-2.515926361,2.962059975,0.002441926,-0.00276045,-0.002079077,0.970990598,-10.94468975,-20.65286827,0.01708,-0.00488,-0.00732,0
101,16-04-22,2:00:38,-24.0441141,29.25441133,421.6953436,-1.049298525,-2.512995958,2.959173679,-0.000912476,0.002356336,7.52E-05,0.276735127,-10.99903297,-21.23266983,0.015616,-0.005368,-0.007076,0
102,16-04-22,2:00:38,-24.0364021,29.26149513,421.6921457,-1.050691843,-2.509365797,2.955591917,-0.000867719,-0.000953591,0.000688424,0.355777949,-11.09875107,-21.11777115,0.017568,-0.007076,-0.006588,0
103,16-04-22,2:00:38,-24.03027839,29.26712725,421.6896011,-1.050071478,-2.510710955,2.957205772,-0.000252536,-0.000331302,-0.000246434,0.414221138,-10.6933527,-21.27147293,0.017324001,-0.005124,-0.008052,0
104,16-04-22,2:00:38,-24.02295709,29.27384753,421.686568,-1.051275611,-2.514808178,2.961997986,0.001906151,-0.001506065,6.21E-05,0.540985882,-10.68187237,-21.18030167,0.015372,-0.00488,-0.00732,0
105,16-04-22,2:00:38,-24.01682639,29.27947404,421.6840263,-1.049285054,-2.515047789,2.963081837,0.00065528,-0.000842071,0.000368483,0.41104725,-10.8869524,-21.47434616,0.016592,-0.005856,-0.007564,0
106,16-04-22,2:00:39,-24.00693769,29.28864184,421.679849,-1.04769361,-2.515197039,2.96162653,-0.000228228,6.17E-05,-0.000215308,0.38037011,-10.81459522,-21.37264252,0.01708,-0.00732,-0.008052,0
107,16-04-22,2:00:39,-23.99715423,29.29762093,421.6757928,-1.05028224,-2.521441936,2.968207121,-0.00014063,-0.001410531,-0.00050595,0.473153561,-10.86461353,-21.42446518,0.015616,-0.00488,-0.006344,0
108,16-04-22,2:00:39,-23.98661174,29.30734055,421.6713781,-1.05138123,-2.520012856,2.966831207,-0.000486048,0.000675269,0.001639573,0.198549077,-10.93688488,-21.55398941,0.01708,-0.005368,-0.008784,0
109,16-04-22,2:00:39,-23.97731129,29.31579028,421.6676058,-1.050727844,-2.521380424,2.968508244,-0.001374604,-0.001201153,-0.001749214,0.383151978,-10.85272694,-21.61259079,0.01708,-0.007076,-0.007808,0
110,16-04-22,2:00:39,-23.96606967,29.32616763,421.6628908,-1.054042339,-2.51824975,2.965348482,0.001000537,0.000934361,0.000632664,0.782366753,-11.07535839,-21.36628532,0.016835999,-0.006344,-0.00854,0
111,16-04-22,2:00:40,-23.9555647,29.33580445,421.6585381,-1.050632596,-2.519647598,2.966681242,-0.000795603,-0.001779288,0.000621671,0.778366387,-10.72515678,-21.29770851,0.014396,-0.004636,-0.006832,0
112,16-04-22,2:00:40,-23.94365004,29.34669955,421.6536284,-1.0515064,-2.514013529,2.959071875,-0.002403747,7.94E-05,-0.000275301,0.684666932,-10.65139198,-21.1258831,0.018300001,-0.005368,-0.00732,0
113,16-04-22,2:00:40,-23.93384069,29.3556843,421.6495593,-1.05082345,-2.511483192,2.955172777,3.99E-05,-0.000531446,3.01E-05,0.892566085,-10.47330666,-20.74660301,0.016104,-0.003416,-0.00976,0
114,16-04-22,2:00:40,-23.92244433,29.36615744,421.6448251,-1.050155163,-2.517505169,2.958759546,0.000956634,-0.000836822,-0.001191631,0.809711516,-10.88171005,-21.77356148,0.01708,-0.00732,-0.009272,0
115,16-04-22,2:00:41,-23.91118171,29.37647692,421.6401647,-1.047762275,-2.516392708,2.958797932,0.00126172,0.001606388,0.000640753,0.88402313,-10.85184097,-21.741045,0.015859999,-0.005612,-0.009028,0
116,16-04-22,2:00:41,-23.89924617,29.38738224,421.6352488,-1.047292113,-2.519176006,2.961324453,0.000345606,0.000690146,0.00033561,0.434229344,-10.90608788,-21.3769722,0.014396,-0.006588,-0.00854,0
117,16-04-22,2:00:41,-23.88862161,29.39712923,421.6308289,-1.045868039,-2.521924734,2.963877439,4.06E-05,-0.000531438,-0.00119154,0.570329905,-10.08399868,-21.60643768,0.016104,-0.004636,-0.006832,0
118,16-04-22,2:00:41,-23.87873272,29.40618289,421.6267429,-1.045735836,-2.520612955,2.960203648,0.000651574,-0.000226006,-0.001496674,0.613452256,-10.44758797,-21.46772194,0.01464,-0.006588,-0.00732,0
119,16-04-22,2:00:41,-23.86887616,29.41520296,421.6226647,-1.049839854,-2.516798973,2.954821587,-0.0005702,-0.000225937,3.07E-05,0.614229083,-10.52464104,-21.57894707,0.015859999,-0.005124,-0.009516,0
120,16-04-22,2:00:42,-23.85824933,29.42492571,421.6182729,-1.048053026,-2.522681475,2.959512711,-0.002708202,0.000384829,-0.000885379,0.372938126,-11.04133034,-21.94690895,0.017324001,-0.006588,-0.007076,0
121,16-04-22,2:00:42,-23.84768946,29.43458428,421.6139069,-1.052640676,-2.520734549,2.96006918,-0.001180945,-0.000225954,-0.000274061,0.625977993,-11.37057114,-21.73878098,0.017811999,-0.004392,-0.006588,0
122,16-04-22,2:00:42,-23.83417616,29.44694118,421.6083226,-1.050657988,-2.517698765,2.959723949,0.001872526,-0.00175303,-0.000274166,1.080352902,-11.26386833,-21.52934837,0.015372,-0.005612,-0.009028,0
123,16-04-22,2:00:42,-23.82424706,29.45601164,421.6042212,-1.051682711,-2.516932011,2.960207939,-0.000571152,7.93E-05,-0.000579686,0.71197027,-10.90110207,-21.12070465,0.016592,-0.004636,-0.008052,0
124,16-04-22,2:00:43,-23.81430447,29.46510798,421.6000981,-1.051090002,-2.519763708,2.965900183,3.94E-05,0.00099545,0.000642011,0.524556696,-11.24249172,-20.97391701,0.018300001,-0.00488,-0.008296,0
125,16-04-22,2:00:43,-23.80257523,29.47579875,421.5952938,-1.051459789,-2.520164251,2.967525482,-0.000571039,0.000995344,-0.000579921,0.475327373,-11.33957386,-21.88693619,0.01708,-0.004148,-0.00976,0
126,16-04-22,2:00:43,-23.78850302,29.48864999,421.5894854,-1.054154396,-2.519011736,2.96742034,0.000956155,-0.001753487,-0.000579654,0.614032745,-11.25046253,-22.22669601,0.017324001,-0.005368,-0.008784,0
127,16-04-22,2:00:43,-23.77827671,29.49801838,421.5852378,-1.054973245,-2.519350767,2.968646288,0.002177767,0.000995469,0.000947593,0.695329666,-11.27447319,-20.76562881,0.016835999,-0.00488,-0.007076,0
128,16-04-22,2:00:44,-23.76839533,29.50703973,421.5811584,-1.054783583,-2.519944191,2.97124958,0.000650592,-0.001142399,0.000336745,0.517866552,-11.32921124,-20.74202919,0.01708,-0.00732,-0.008052,0
129,16-04-22,2:00:44,-23.75852651,29.51604174,421.5770909,-1.056191921,-2.518298149,2.97182107,0.000955857,0.001300856,0.000336634,0.548383176,-11.16990852,-20.6670475,0.015616,-0.005856,-0.006588,0
130,16-04-22,2:00:44,-23.74861448,29.5250916,421.572999,-1.052834034,-2.517142773,2.971951962,0.001872037,-0.00144809,0.000336624,0.617129087,-11.25393581,-21.0647831,0.01708,-0.005612,-0.009028,0
131,16-04-22,2:00:44,-23.73866943,29.53417006,421.5688796,-1.052258968,-2.521440506,2.978043795,0.000955775,-0.000531986,0.000947625,0.524134338,-11.45057964,-20.99351883,0.015859999,-0.00488,-0.00732,0
132,16-04-22,2:00:44,-23.72855727,29.54338944,421.5647255,-1.051355124,-2.524135113,2.984293938,-0.002709078,-0.00114268,3.16E-05,0.661842465,-11.46560669,-20.4802742,0.017568,-0.0061,-0.00732,0
133,16-04-22,2:00:45,-23.71720076,29.55374886,421.560043,-1.049096465,-2.524004459,2.986488104,3.98E-05,0.00130037,0.000337121,0.78742671,-11.28482914,-21.08970833,0.016348001,-0.006832,-0.006832,0
134,16-04-22,2:00:45,-23.70446483,29.56537378,421.5547696,-1.05180335,-2.521318674,2.984828949,0.001261758,-0.000532421,0.00064271,0.596852481,-11.6982708,-20.85460854,0.016835999,-0.005856,-0.006344,0
135,16-04-22,2:00:45,-23.69314645,29.57567072,421.5501305,-1.05400002,-2.514679193,2.98092103,0.000651062,0.000383823,-0.000273572,0.52450186,-11.38881397,-20.51918983,0.01952,-0.004148,-0.0061,0
136,16-04-22,2:00:45,-23.68186451,29.58592612,421.5455044,-1.057180882,-2.518252611,2.987309694,-0.001486933,7.83E-05,3.20E-05,0.506431699,-11.56922436,-20.61696053,0.016104,-0.004148,-0.00732,0
137,16-04-22,2:00:46,-23.67127415,29.59557611,421.5411373,-1.05831027,-2.520729065,2.991166353,-0.000265095,0.000383564,3.23E-05,0.351005167,-11.45122814,-20.68650246,0.017568,-0.005124,-0.008052,0
138,16-04-22,2:00:46,-23.66056444,29.6053679,421.5366808,-1.057117462,-2.523344278,2.996046782,-0.00148676,0.001299502,0.000337684,0.688489914,-11.33572292,-20.17709923,0.016592,-0.003904,-0.008296,0
139,16-04-22,2:00:46,-23.65036327,29.61461787,421.5325014,-1.056524992,-2.529861689,3.004918814,0.002483593,7.78E-05,-0.000272958,0.80171293,-11.26221371,-20.5731163,0.016104,-0.00488,-0.010492,0
140,16-04-22,2:00:46,-23.63904494,29.62493915,421.5278468,-1.05807054,-2.527921915,3.003510952,0.001567254,0.001299188,-0.000883863,0.956023753,-11.39386272,-20.3730793,0.016104,-0.005612,-0.008052,0
141,16-04-22,2:00:46,-23.6262248,29.63657937,421.5225952,-1.058864713,-2.524331093,3.00088644,-0.001487408,0.000383119,0.000337436,0.827787936,-11.64276409,-21.01501274,0.01708,-0.007808,-0.008052,0
142,16-04-22,2:00:47,-23.61634838,29.64556963,421.518528,-1.057989359,-2.527124882,3.004777908,-0.001182066,7.77E-05,3.23E-05,0.744079947,-11.53778648,-20.73883247,0.017568,-0.006588,-0.007564,0
143,16-04-22,2:00:47,-23.6056696,29.65527877,421.5141312,-1.058780074,-2.528361082,3.007302761,-0.000265939,7.77E-05,-0.001189237,0.826383114,-11.38506985,-20.69592476,0.015372,-0.0061,-0.009516,0
144,16-04-22,2:00:47,-23.59572381,29.66430438,421.5100622,-1.055312872,-2.529363155,3.008357048,-0.000877334,-0.000532936,-0.000883766,0.802783608,-11.17073536,-21.15298843,0.015616,-0.004636,-0.007808,0
145,16-04-22,2:00:47,-23.58511681,29.67399203,421.5056579,-1.053435445,-2.53125906,3.009782076,-0.00026607,-0.002059997,-0.001494437,0.644520164,-11.39991283,-21.01589203,0.017324001,-0.005612,-0.008052,0
146,16-04-22,2:00:48,-23.57514894,29.68305274,421.5015529,-1.051268816,-2.532033443,3.009925604,-0.003319845,-0.001754206,-0.000272665,1.011924386,-11.6746769,-21.56453514,0.016104,-0.006832,-0.007076,0
147,16-04-22,2:00:48,-23.5652078,29.69209355,421.4974695,-1.051747918,-2.533776283,3.011950016,3.98E-05,7.84E-05,0.000338237,0.922976613,-11.46091175,-21.20312881,0.017568,-0.006344,-0.007808,0
148,16-04-22,2:00:48,-23.55441944,29.70187228,421.493043,-1.053656101,-2.52777648,3.004465818,3.98E-05,0.00068935,-0.000883404,0.960526168,-11.38115215,-21.25549126,0.016104,-0.005612,-0.006832,0
149,16-04-22,2:00:48,-23.54430115,29.71108311,421.4888634,-1.055237889,-2.521300554,2.996390104,-0.00179252,7.86E-05,3.29E-05,0.914518178,-11.3100872,-20.98231125,0.015372,-0.00488,-0.00732,0
150,16-04-22,2:00:48,-23.53406095,29.72035693,421.4846822,-1.053035617,-2.515920401,2.989146471,-0.002708321,-0.000226963,-0.000272337,0.727618575,-11.1963501,-21.51156044,0.016104,-0.006344,-0.009028,0
151,16-04-22,2:00:49,-23.52405556,29.72946421,421.4805613,-1.048546314,-2.519056559,2.992218494,0.001567844,0.000689359,0.000643798,0.75881058,-11.03907585,-21.7417984,0.016104,-0.0061,-0.007564,0
152,16-04-22,2:00:49,-23.51258534,29.73984934,421.47587,-1.049856663,-2.521916151,2.991458654,-0.000875426,-0.001143039,-0.001188659,1.007624626,-11.01864052,-21.42543793,0.015616,-0.00488,-0.006588,0
153,16-04-22,2:00:49,-23.50144133,29.74995213,421.4712994,-1.047052622,-2.517282009,2.983644724,0.000956945,0.000995026,-0.00241005,0.91150254,-11.3741045,-21.47204781,0.017324001,-0.003904,-0.006588,0
154,16-04-22,2:00:49,-23.49073808,29.7596744,421.4669014,-1.047859192,-2.516731739,2.98263979,0.000345647,0.001300163,0.001255202,0.662885189,-11.34001732,-21.30475616,0.014884,-0.005368,-0.007564,0
155,16-04-22,2:00:50,-23.47998713,29.76944221,421.4624644,-1.046427608,-2.514389992,2.982931852,0.000650853,7.80E-05,0.00033871,0.635147154,-11.29008198,-21.14671707,0.018300001,-0.00732,-0.0061,0
156,16-04-22,2:00:50,-23.4684972,29.77983548,421.4577614,-1.048312068,-2.513649702,2.978531599,-0.000570737,-0.000838323,0.000338591,0.88194257,-11.25531673,-21.56399345,0.016104,-0.005612,-0.00732,0
157,16-04-22,2:00:50,-23.45843627,29.78900988,421.4535968,-1.047254682,-2.517043114,2.981963634,0.000650985,7.79E-05,0.000338562,0.861432076,-11.25601006,-21.34672356,0.016835999,-0.007076,-0.006344,0
158,16-04-22,2:00:50,-23.44887681,29.7976326,421.4496935,-1.048474193,-2.512299299,2.975971699,-0.002708502,7.80E-05,0.001865461,0.907544315,-10.95270443,-21.2577343,0.017324001,-0.004392,-0.007808,0
159,16-04-22,2:00:50,-23.43868286,29.80688103,421.4455252,-1.049638271,-2.518373251,2.97777462,-0.003318748,-0.001449317,0.000338017,0.842053652,-10.94973087,-21.79515266,0.017811999,-0.006588,-0.006344,0
160,16-04-22,2:00:51,-23.42793759,29.81660131,421.4411299,-1.049383283,-2.513411522,2.973508596,0.001262808,-0.00053309,0.000338111,0.929503262,-10.92153549,-20.76897621,0.018787999,-0.005368,-0.006588,0
161,16-04-22,2:00:51,-23.41601631,29.82738177,421.4362569,-1.050532579,-2.508513927,2.967401743,4.10E-05,7.81E-05,-0.000273078,0.608495474,-10.8862133,-20.96320152,0.015616,-0.006588,-0.00854,0
162,16-04-22,2:00:51,-23.40444023,29.83789309,421.4314856,-1.049339414,-2.509559155,2.966209173,-0.002096569,-0.0002276,-0.000273253,0.670439303,-10.87904358,-20.91714287,0.017324001,-0.006832,-0.007808,0
163,16-04-22,2:00:51,-23.39294186,29.84827221,421.4267945,-1.050325274,-2.497818947,2.954331636,0.000346983,0.000383295,-0.000578567,0.706209362,-10.70537949,-20.92952919,0.015372,-0.005368,-0.006588,0
164,16-04-22,2:00:52,-23.38178795,29.85836362,421.4222218,-1.050213695,-2.504753828,2.96052599,0.000652472,0.000688657,0.001254086,0.849122763,-10.71047115,-20.96492958,0.017568,-0.005856,-0.006588,0
165,16-04-22,2:00:52,-23.36975379,29.86927564,421.4172773,-1.04908812,-2.503715515,2.957381725,0.000652265,-0.000533478,3.24E-05,1.216435313,-11.08210945,-21.23511887,0.016592,-0.00488,-0.008784,0
166,16-04-22,2:00:52,-23.35893447,29.87903265,421.4128726,-1.045999765,-2.510494709,2.965801716,-0.001485663,0.000993432,0.001254073,1.401863813,-11.13730335,-21.20859337,0.018544,-0.005124,-0.007076,0
167,16-04-22,2:00:52,-23.34557599,29.89115201,421.4073579,-1.05077076,-2.505403042,2.961292505,4.14E-05,7.70E-05,0.000643142,0.989515901,-11.45273399,-21.47445107,0.015859999,-0.004148,-0.009516,0
168,16-04-22,2:00:53,-23.33411673,29.9014697,421.4027113,-1.049781799,-2.511653662,2.968478918,0.00065217,0.000687999,-0.001494875,1.289445519,-11.36101246,-21.8038063,0.017324001,-0.004636,-0.006832,0
169,16-04-22,2:00:53,-23.32369855,29.91090005,421.398444,-1.050477505,-2.513383627,2.969572067,0.001263015,0.000687369,3.24E-05,0.971461177,-11.06067181,-21.63201714,0.016104,-0.005612,-0.008296,0
170,16-04-22,2:00:53,-23.31158147,29.92183416,421.3934876,-1.051959753,-2.518687248,2.974916458,0.00126314,0.000686811,-0.000578586,1.024294615,-11.41309357,-21.48745918,0.01708,-0.00488,-0.00732,0
171,16-04-22,2:00:53,-23.30072544,29.93165874,421.3890326,-1.052445173,-2.517564058,2.974345207,4.14E-05,0.001297588,-0.001189317,1.051227331,-11.56502438,-22.0513916,0.018544,-0.006344,-0.007076,0
172,16-04-22,2:00:54,-23.29061396,29.94078098,421.3849014,-1.054296494,-2.511831284,2.967041254,0.000651702,7.57E-05,-0.001494475,0.933345616,-11.14789963,-22.26774216,0.016835999,-0.005856,-0.006344,0
173,16-04-22,2:00:54,-23.2790493,29.95120659,421.3801908,-1.052517414,-2.51252389,2.966776133,-0.000264896,0.000991784,-0.000272813,0.754133046,-11.05947304,-22.0587616,0.017811999,-0.006588,-0.008784,0
174,16-04-22,2:00:54,-23.26635429,29.96266647,421.3750027,-1.052675605,-2.516699314,2.966743231,-0.001181047,-0.000535616,0.000338132,1.199849725,-10.42957497,-21.99204636,0.017811999,-0.005124,-0.00732,0
175,16-04-22,2:00:54,-23.25547188,29.97251307,421.370529,-1.052465081,-2.516419411,2.964141846,-0.001791716,0.000380798,-0.001188885,1.123746395,-11.00687695,-20.99622536,0.015859999,-0.00488,-0.008052,0
176,16-04-22,2:00:54,-23.24539586,29.98160114,421.3664147,-1.052682638,-2.517335653,2.965207338,-0.001180919,-0.00206247,0.000338543,1.223824382,-11.13033772,-21.31280327,0.017324001,-0.005612,-0.005368,0
177,16-04-22,2:00:55,-23.2353323,29.99064896,421.3623272,-1.054508448,-2.517123938,2.965760231,0.000346132,0.001297296,-0.00027233,1.209800482,-10.99823093,-21.33953667,0.017811999,-0.00488,-0.008784,0
178,16-04-22,2:00:55,-23.22335949,30.00144345,421.3574388,-1.050596118,-2.523171425,2.973616838,0.001872806,0.000380768,0.001254759,1.115193844,-11.04588509,-20.92704773,0.015859999,-0.005612,-0.00732,0
179,16-04-22,2:00:55,-23.21256146,30.01117934,421.3530298,-1.050951004,-2.520896673,2.971941233,-0.00057037,0.001297234,-0.000272212,0.909276724,-11.37640572,-21.73080063,0.016835999,-0.006344,-0.008296,0
180,16-04-22,2:00:55,-23.20090398,30.02168229,421.3482716,-1.048977733,-2.523658991,2.974321604,-0.000264933,0.000380764,-0.000272131,0.914666414,-11.33742714,-20.55879593,0.016348001,-0.005124,-0.007808,0
181,16-04-22,2:00:56,-23.18585541,30.03524425,421.3421286,-1.051458955,-2.523040533,2.979857445,0.000956688,0.00160238,0.000643831,0.741706967,-11.16140652,-21.75845146,0.015372,-0.002928,-0.007076,0
182,16-04-22,2:00:56,-23.17238983,30.04740002,421.3365949,-1.055110097,-2.522250652,2.979006529,0.001262197,7.53E-05,0.00094925,0.804556012,-11.2733078,-21.35329819,0.016104,-0.006832,-0.008052,0
183,16-04-22,2:00:56,-23.16200062,30.05675438,421.3323724,-1.052907467,-2.526970387,2.984750032,4.05E-05,0.00099183,-0.000272495,1.206358433,-11.38518143,-21.36934662,0.015859999,-0.00488,-0.007808,0
184,16-04-22,2:00:56,-23.15044351,30.06713167,421.327682,-1.053347945,-2.528021336,2.986864805,4.10E-05,7.57E-05,-0.000883359,1.197913051,-11.58272362,-21.55088234,0.017568,-0.005124,-0.007564,0
185,16-04-22,2:00:57,-23.1368211,30.07940989,421.322108,-1.056472898,-2.532268047,2.993274927,-0.002402393,7.58E-05,-0.000272532,1.055601835,-11.1292038,-21.23848152,0.015128,-0.005612,-0.008296,0
186,16-04-22,2:00:57,-23.12660618,30.08861203,421.3179243,-1.056033731,-2.533111811,2.994198084,0.000652203,7.57E-05,0.000643575,0.911746144,-11.31461048,-20.99829292,0.016592,-0.0061,-0.00732,0
187,16-04-22,2:00:57,-23.11692362,30.09728558,421.3139947,-1.057292342,-2.532518625,2.994583845,0.000957754,0.000686365,3.26E-05,1.038157821,-11.35026073,-21.1394825,0.018056,-0.005124,-0.006832,0
188,16-04-22,2:00:57,-23.10728607,30.10597821,421.3100552,-1.058906794,-2.530679464,2.99768734,0.001568342,0.000991709,0.000643549,1.235588551,-11.29666138,-21.36452675,0.01708,-0.006588,-0.008784,0
189,16-04-22,2:00:58,-23.09627067,30.11586032,421.3056042,-1.056687355,-2.533228636,2.995718718,0.001262993,0.002823913,3.28E-05,1.106418967,-11.45410252,-21.32886314,0.017568,-0.004636,-0.006832,0
190,16-04-22,2:00:58,-23.08278274,30.12800336,421.300092,-1.057714105,-2.528403521,2.992070436,-0.001485795,-0.001146647,0.001865095,1.118884921,-11.29252911,-21.00389481,0.016835999,-0.004392,-0.007808,0
191,16-04-22,2:00:58,-23.07229337,30.13731935,421.2959193,-1.058757663,-2.530066013,2.994533539,-0.000569452,-0.001146583,-0.000883804,1.226763606,-11.51612663,-20.99838448,0.018544,-0.005856,-0.008784,0
192,16-04-22,2:00:58,-23.06553018,30.14339362,421.2931679,-1.057594657,-2.529202938,2.994217873,0.000346711,0.000685794,-0.000883732,1.287418008,-11.57141304,-21.04461479,0.017568,-0.006832,-0.007808,0
193,16-04-22,2:00:58,-23.05916863,30.14910662,421.2905791,-1.058390498,-2.527580023,2.992684364,0.001262901,-0.001146705,0.000948784,1.367270947,-11.36089897,-21.24721336,0.018300001,-0.005856,-0.007076,0
194,16-04-22,2:00:58,-23.05280941,30.15481881,421.2879887,-1.058914304,-2.526799917,2.991878986,-0.000264239,0.00190746,-0.001189145,1.199342132,-11.31460381,-21.06017685,0.016835999,-0.005612,-0.00732,0
195,16-04-22,2:00:59,-23.04644528,30.16053778,421.2853986,-1.059723377,-2.529987097,2.995852947,4.12E-05,7.49E-05,0.001559617,1.275495529,-11.35209942,-21.02323151,0.016104,-0.003416,-0.007564,0
196,16-04-22,2:00:59,-23.04007529,30.16636549,421.2827064,-1.05920887,-2.529545546,2.995576382,0.001262814,0.000991073,-0.000883769,1.143555999,-11.36734962,-21.47270584,0.018300001,-0.006344,-0.008296,0
197,16-04-22,2:00:59,-23.02981435,30.17558012,421.2785171,-1.057279348,-2.531956673,2.997988939,0.002484657,0.001601471,-0.001189267,1.272009254,-11.65234661,-21.56295776,0.015616,-0.005124,-0.007564,0
198,16-04-22,2:00:59,-23.01876592,30.1854683,421.2740619,-1.058788061,-2.523720503,2.989085913,-0.001791233,-0.000842118,-0.00027303,0.928139389,-11.8413105,-21.44117355,0.016835999,-0.0061,-0.00854,0
199,16-04-22,2:00:59,-23.00820953,30.19494236,421.2697686,-1.058710933,-2.524768114,2.993119001,-0.000874676,-0.001147516,-0.001189351,0.980690718,-11.66034889,-21.76385498,0.016348001,-0.005856,-0.006832,0
200,16-04-22,2:01:00,-22.99542521,30.20644648,421.2645277,-1.055505157,-2.529679537,2.997972012,-0.000569368,0.001295906,-0.00210551,0.803131163,-11.66810703,-21.21331215,0.016835999,-0.005124,-0.006344,0
201,16-04-22,2:01:00,-22.98568155,30.21511379,421.2606007,-1.057083964,-2.524688721,2.993447065,0.000652172,-0.00053667,-0.000578382,0.784533322,-11.76814461,-20.98244286,0.015859999,-0.00488,-0.007808,0
202,16-04-22,2:01:00,-22.97526439,30.22446606,421.2563932,-1.058679104,-2.521613121,2.991990566,0.000957467,-0.000842147,-0.000272575,0.707906008,-11.73849869,-20.87152672,0.018300001,-0.005124,-0.009516,0
203,16-04-22,2:01:00,-22.96504299,30.23369046,421.2521805,-1.05887413,-2.523799658,2.996155262,0.002789659,0.000990341,3.28E-05,0.926853776,-11.29938793,-21.01139259,0.016104,-0.004636,-0.008052,0
204,16-04-22,2:01:01,-22.95457545,30.24305467,421.2479478,-1.058715105,-2.522491693,2.995123148,-0.001181135,0.001295647,0.000949027,1.056165695,-11.25416183,-20.64905739,0.016104,-0.005124,-0.008296,0
205,16-04-22,2:01:01,-22.94430821,30.25223587,421.2438011,-1.055270195,-2.519795179,2.996773481,0.000651263,0.000379003,-0.000578307,0.863008618,-11.46726894,-21.44017029,0.017568,-0.005368,-0.007564,0
206,16-04-22,2:01:01,-22.93000427,30.26508427,421.2379504,-1.058843732,-2.521472931,2.994152308,0.001261823,-0.000231751,-0.000578019,0.938484669,-11.63697147,-21.58050919,0.015616,-0.006344,-0.008784,0
207,16-04-22,2:01:01,-22.91964933,30.27433846,421.2337683,-1.058607101,-2.520942926,2.993377924,-0.000265377,0.000379223,0.000338298,1.001103401,-11.36872673,-21.70379829,0.015859999,-0.005124,-0.006588,0
208,16-04-22,2:01:01,-22.90946961,30.28345059,421.2296221,-1.05770874,-2.519440889,2.992870808,-0.000570649,0.000989687,-0.002105183,1.112163067,-11.12929058,-21.08944702,0.019276001,-0.006588,-0.007076,0
209,16-04-22,2:01:02,-22.89815898,30.29346934,421.2251467,-1.059574127,-2.518901825,2.988895178,4.03E-05,0.000989694,3.29E-05,1.0469594,-11.0819416,-21.08884048,0.018787999,-0.005612,-0.008052,0
210,16-04-22,2:01:02,-22.89175275,30.29919937,421.2225485,-1.059989691,-2.52009964,2.990249634,0.000345683,0.000684204,3.29E-05,1.084155202,-11.16458893,-21.0758152,0.018056,-0.005124,-0.008296,0
211,16-04-22,2:01:02,-22.88533951,30.30493761,421.2199454,-1.060146451,-2.52129364,2.9916749,0.00156728,-0.000842889,-0.000272498,1.143780231,-11.14828682,-21.25563431,0.016835999,-0.00488,-0.007808,0
212,16-04-22,2:01:02,-22.87892111,30.31067909,421.2173443,-1.059755921,-2.521884203,2.991837502,-0.001181515,7.34E-05,0.000338338,1.137381792,-11.11135101,-21.38269615,0.015616,-0.005124,-0.007808,0
213,16-04-22,2:01:02,-22.87211283,30.31676818,421.2145854,-1.05918932,-2.523957491,2.994626522,0.002483491,-0.000231939,0.000338307,1.113894463,-11.32204247,-21.09759521,0.016348001,-0.006588,-0.007808,0
214,16-04-22,2:01:02,-22.86492378,30.3233126,421.2115661,-1.056418061,-2.527114153,2.998277664,0.001261415,0.00068416,-0.001494429,1.077702045,-11.39441681,-21.440382,0.01708,-0.005368,-0.00854,0
215,16-04-22,2:01:03,-22.85176213,30.33508639,421.2062311,-1.053025365,-2.525495529,2.995286703,-0.000571745,0.000683879,3.29E-05,0.992681682,-11.46740627,-20.91501617,0.014396,-0.00732,-0.008052,0
216,16-04-22,2:01:03,-22.84155931,30.34417458,421.202123,-1.051522732,-2.519272804,2.988306522,0.003093408,7.30E-05,-0.001188751,0.954045355,-11.3259201,-21.19242859,0.016592,-0.006588,-0.005612,0
217,16-04-22,2:01:03,-22.8292522,30.35517785,421.197133,-1.051965117,-2.518376827,2.986771107,-0.001793202,7.30E-05,-0.000272213,1.030972481,-11.04902077,-21.7038002,0.014396,-0.0061,-0.008296,0
218,16-04-22,2:01:03,-22.81904733,30.36427412,421.1930181,-1.052173615,-2.511254549,2.974032402,-0.000876928,-0.0002324,0.000338481,0.791977882,-11.39858913,-21.57906342,0.017324001,-0.005368,-0.007564,0
219,16-04-22,2:01:04,-22.80722021,30.37485756,421.1882087,-1.053761482,-2.514688492,2.979747295,-0.000876863,0.001294481,0.001254636,0.800610065,-11.56483364,-21.21811867,0.017568,-0.006344,-0.006588,0
220,16-04-22,2:01:04,-22.79426071,30.38646253,421.1829212,-1.05320549,-2.511759043,2.979218006,-0.000876583,-0.000537817,0.00033834,0.872514009,-11.44950199,-21.10095406,0.017811999,-0.005368,-0.008052,0
221,16-04-22,2:01:04,-22.78226717,30.39713613,421.1781037,-1.054670095,-2.513165712,2.980704069,0.003704382,-0.000232197,0.000338228,0.804352641,-11.26695156,-20.36190033,0.015616,-0.005124,-0.008296,0
222,16-04-22,2:01:04,-22.77227137,30.40606126,421.174061,-1.051728725,-2.51747942,2.985972643,-0.001182966,-0.000537706,-0.000883462,0.952958345,-11.2279253,-20.80829048,0.018300001,-0.004392,-0.008052,0
223,16-04-22,2:01:05,-22.76226381,30.41499251,421.1700112,-1.049692869,-2.522682667,2.992686749,3.88E-05,0.00221106,-0.001799745,1.101938963,-11.39543533,-21.00987625,0.01708,-0.005124,-0.008052,0
224,16-04-22,2:01:05,-22.75148851,30.42460435,421.1656528,-1.052024364,-2.526002169,2.997449398,0.00156551,7.28E-05,0.001254464,1.327286959,-11.42605305,-21.15255737,0.016592,-0.00366,-0.009272,0
225,16-04-22,2:01:05,-22.74074175,30.43419211,421.1613066,-1.053858876,-2.522731066,2.993165016,0.00156533,0.000377838,-0.001188898,0.833690703,-11.66299248,-21.45445442,0.016835999,-0.005368,-0.005124,0
226,16-04-22,2:01:05,-22.72534278,30.44792205,421.1550794,-1.056096554,-2.515573263,2.988009691,0.002785878,0.001293414,0.00155956,1.140260339,-11.6362648,-21.91165352,0.017811999,-0.006832,-0.008296,0
227,16-04-22,2:01:06,-22.71236147,30.4594956,421.1498323,-1.050597191,-2.515895844,2.98713994,-0.001795454,-0.001761,0.000337688,1.093120694,-11.40959454,-21.56141663,0.018544,-0.00488,-0.00854,0
228,16-04-22,2:01:06,-22.70202299,30.46868825,421.1456688,-1.049271584,-2.525078535,2.995942831,0.000953244,0.000987808,3.22E-05,1.07212019,-11.40550041,-21.34531021,0.016104,-0.005856,-0.006832,0
229,16-04-22,2:01:06,-22.69011388,30.47933571,421.1408319,-1.047811985,-2.522765875,2.993361473,3.65E-05,-0.00053948,0.002170347,1.025324702,-11.03262138,-21.35154343,0.015616,-0.005124,-0.005612,0
230,16-04-22,2:01:06,-22.67559221,30.49228878,421.1349331,-1.05016315,-2.523411512,2.990241289,0.002174564,-0.000845191,0.00033722,1.174484372,-11.18518162,-21.60280037,0.01708,-0.006832,-0.007076,0
231,16-04-22,2:01:07,-22.66355364,30.50297773,421.1301121,-1.050577283,-2.515628815,2.980745077,-0.001185259,-0.000234453,-0.000884345,1.16400528,-11.12350655,-20.98798752,0.016592,-0.005856,-0.008784,0
232,16-04-22,2:01:07,-22.65202571,30.51323863,421.125457,-1.050304413,-2.515415907,2.980293036,0.003395753,7.12E-05,-0.000273672,0.580104768,-11.50443459,-21.65126419,0.015616,-0.0061,-0.005856,0
233,16-04-22,2:01:07,-22.64162279,30.52247238,421.1212786,-1.052764416,-2.506220341,2.97091794,-0.002102666,7.11E-05,-0.000579015,0.799346149,-11.42908382,-21.53139114,0.016592,-0.004148,-0.008296,0
234,16-04-22,2:01:07,-22.63057633,30.53234993,421.116777,-1.051654458,-2.509581566,2.974452496,0.00064601,-0.000539768,0.001253466,1.310566187,-11.35647297,-21.29918098,0.016592,-0.006832,-0.009272,0
235,16-04-22,2:01:07,-22.6202039,30.54155474,421.112615,-1.049314857,-2.512512922,2.978631973,0.002783453,7.11E-05,0.001253189,1.29049778,-11.32592201,-21.31734085,0.016348001,-0.006344,-0.009272,0
236,16-04-22,2:01:08,-22.6055575,30.55459528,421.1066989,-1.047604084,-2.5183568,2.984348774,0.000340281,0.001292457,3.13E-05,1.271863818,-11.42939854,-21.56150055,0.016592,-0.005124,-0.007076,0
237,16-04-22,2:01:08,-22.5932616,30.56551022,421.1017502,-1.047043324,-2.516546726,2.980823278,-0.001797151,7.09E-05,-0.000274085,0.901002944,-11.10288429,-21.85998154,0.018056,-0.004392,-0.00854,0
238,16-04-22,2:01:08,-22.58201822,30.57550279,421.0972161,-1.046025753,-2.522155523,2.984970093,-0.001185788,0.000681807,0.000947475,1.181733608,-10.96123219,-21.44963455,0.016592,-0.005124,-0.00732,0
239,16-04-22,2:01:09,-22.57047289,30.58576081,421.0925628,-1.04612577,-2.522035599,2.982594728,-0.001796644,-0.000234681,-0.00119031,1.127362132,-10.97483158,-21.04763412,0.016835999,-0.00488,-0.00732,0
240,16-04-22,2:01:09,-22.55892137,30.59602778,421.087906,-1.048552155,-2.522016287,2.982142448,-0.002712782,-0.000234514,0.000336966,1.195390582,-11.07750607,-20.88446808,0.016592,-0.0061,-0.007076,0
241,16-04-22,2:01:09,-22.54850635,30.60525754,421.0837298,-1.050452113,-2.522465706,2.982750893,-0.001796087,0.000681683,-0.001495563,1.282796741,-11.16499138,-20.66027069,0.018300001,-0.004636,-0.007076,0
242,16-04-22,2:01:09,-22.53891322,30.61377644,421.0798651,-1.050774455,-2.525661707,2.987757206,0.002785264,-0.000234683,-0.000273917,1.280958533,-11.29990578,-20.86038399,0.017811999,-0.005856,-0.008784,0
243,16-04-22,2:01:09,-22.52853017,30.62304788,421.0756234,-1.049762368,-2.529921293,2.99320817,-0.000879794,0.000987005,0.001558531,1.076473355,-11.54526424,-21.16687965,0.017811999,-0.005124,-0.009516,0
244,16-04-22,2:01:10,-22.51571944,30.63438615,421.0705064,-1.048711181,-2.524138451,2.989100933,0.001563575,0.001292363,-0.000579482,1.190403819,-11.48253536,-21.38554001,0.015128,-0.006344,-0.008052,0
245,16-04-22,2:01:10,-22.50533626,30.64357838,421.0663467,-1.0496279,-2.520127058,2.984917164,0.003701512,0.000375798,-0.001190265,1.504031301,-11.20665932,-21.06564713,0.016835999,-0.006832,-0.008052,0
246,16-04-22,2:01:10,-22.49439643,30.65328158,421.0619396,-1.04915309,-2.518408537,2.985160589,-0.000880048,0.000681145,3.14E-05,1.963737249,-11.52480316,-21.28726196,0.01464,-0.0061,-0.008296,0
247,16-04-22,2:01:10,-22.48245773,30.66389432,421.05712,-1.046277285,-2.522476196,2.988294125,0.000341751,0.001291967,-0.000274068,1.566958427,-11.40702629,-21.28930283,0.017811999,-0.005124,-0.008296,0
248,16-04-22,2:01:11,-22.47088072,30.67415899,421.0524624,-1.046370983,-2.521763086,2.986785412,-0.002101421,7.01E-05,0.000947698,1.647284627,-11.29668331,-21.72332001,0.01708,-0.00732,-0.007808,0
249,16-04-22,2:01:11,-22.45928783,30.68441698,421.0478194,-1.048006654,-2.514481544,2.977011442,0.001258394,0.001291692,-0.000884809,1.751568317,-11.26946831,-21.37941551,0.017324001,-0.00488,-0.007808,0
250,16-04-22,2:01:11,-22.44892251,30.69360413,421.043652,-1.048586965,-2.511601925,2.973280191,3.65E-05,-0.000540953,0.002474683,1.208804965,-11.37097263,-21.24848366,0.017811999,-0.005368,-0.007808,0
251,16-04-22,2:01:11,-22.43850129,30.70289232,421.0394042,-1.04873395,-2.51203227,2.974829912,-0.000879744,0.002208034,0.000336511,1.38140285,-11.56499386,-21.49706841,0.018300001,-0.006588,-0.006588,0
252,16-04-22,2:01:12,-22.42712233,30.71293638,421.0348724,-1.053921342,-2.513187885,2.975037813,0.001257909,6.96E-05,-0.000579495,1.238061428,-11.42308044,-21.54571152,0.017568,-0.005856,-0.005368,0
253,16-04-22,2:01:12,-22.41329406,30.72521102,421.0292921,-1.052797318,-2.506719351,2.971367598,-0.000269331,-0.00115212,-0.001189948,1.507586122,-11.44478893,-21.50929832,0.016592,-0.0061,-0.009028,0
254,16-04-22,2:01:12,-22.40206454,30.73512698,421.0248041,-1.050335407,-2.513247967,2.977450609,0.00064701,6.95E-05,-0.000578962,1.414564013,-11.38484287,-21.13554001,0.015859999,-0.005612,-0.006344,0
255,16-04-22,2:01:12,-22.39043742,30.74541886,421.0201349,-1.049731851,-2.506619453,2.970159054,0.00095222,6.95E-05,3.18E-05,1.418035507,-11.72840595,-21.4733181,0.018056,-0.004636,-0.006832,0
256,16-04-22,2:01:12,-22.38000371,30.75463256,421.0159653,-1.053298831,-2.507457733,2.972335577,-0.000574879,6.96E-05,-0.000273682,1.411876082,-11.83349037,-21.44895554,0.016835999,-0.003904,-0.008296,0
257,16-04-22,2:01:13,-22.36975597,30.76369712,421.0118502,-1.053588033,-2.51189065,2.980170012,-0.002101675,-0.001151916,0.000337424,0.961865664,-11.70932007,-21.65210152,0.016348001,-0.005612,-0.008296,0
258,16-04-22,2:01:13,-22.35776952,30.77432028,421.0070223,-1.051327825,-2.511998653,2.978214979,-0.003017841,-0.000235922,-0.00057877,1.400391817,-11.84466362,-21.20748138,0.015616,-0.005612,-0.009516,0
259,16-04-22,2:01:13,-22.34210631,30.7881742,421.0007383,-1.047973633,-2.516092539,2.987072468,0.000647761,-0.000236092,-0.000884091,1.269483209,-11.69740677,-21.20812416,0.017324001,-0.006344,-0.007564,0
260,16-04-22,2:01:13,-22.33121932,30.79779722,420.9963689,-1.047157168,-2.513474226,2.984681368,0.000342365,-0.000541835,0.000948539,1.510248899,-11.82605743,-20.88209343,0.015859999,-0.003904,-0.007564,0
261,16-04-22,2:01:14,-22.31957525,30.80806785,420.991721,-1.046279788,-2.523762941,2.998229027,-0.00057395,-0.000541587,-0.000273128,1.412368417,-11.36244869,-20.97954178,0.017811999,-0.007076,-0.006832,0
262,16-04-22,2:01:14,-22.31103016,30.81565693,420.9882676,-1.047881365,-2.519994736,2.994343519,0.001869267,0.000374604,-0.001494825,1.243774533,-11.45387363,-21.48388481,0.017324001,-0.006344,-0.00732,0
263,16-04-22,2:01:14,-22.29639937,30.82859292,420.9823732,-1.04796648,-2.520987272,2.993898869,-0.001185061,0.000374608,3.23E-05,1.555449247,-11.35015011,-21.01629066,0.016592,-0.006344,-0.00732,0
264,16-04-22,2:01:14,-22.28500403,30.83862974,420.9778437,-1.046979904,-2.522364616,2.996482611,0.00125879,-0.000236323,-0.001494224,1.474191308,-11.2492094,-21.46638489,0.017811999,-0.005368,-0.008784,0
265,16-04-22,2:01:15,-22.27113474,30.85087401,420.9722881,-1.045670867,-2.5249722,2.996549368,-0.000268344,0.000374675,-0.000577949,1.392861962,-11.18758106,-21.58192253,0.017811999,-0.005612,-0.006832,0
266,16-04-22,2:01:15,-22.26057495,30.86022265,420.968021,-1.047735572,-2.517685175,2.986723185,-0.000268277,0.00037474,-0.000883259,1.253980279,-11.19115829,-21.93863869,0.014884,-0.006832,-0.008052,0
267,16-04-22,2:01:15,-22.25041265,30.86913099,420.9640051,-1.044772029,-2.514074087,2.98057127,0.000342607,-0.000236072,-0.000271967,1.236382127,-11.19572639,-22.06869125,0.015616,-0.006344,-0.008296,0
268,16-04-22,2:01:15,-22.23974823,30.87860171,420.9596922,-1.045820713,-2.510802269,2.974859715,0.000647951,6.92E-05,-0.000577482,1.329872727,-11.26806068,-21.8682251,0.015859999,-0.005612,-0.00976,0
269,16-04-22,2:01:16,-22.22701568,30.88978523,420.9546419,-1.045407891,-2.51717782,2.980487823,0.000342472,0.001290547,3.40E-05,1.508042574,-11.6270256,-21.89943695,0.016592,-0.004148,-0.007808,0
270,16-04-22,2:01:16,-22.21670169,30.8988773,420.9505165,-1.047280908,-2.51981926,2.983403921,-0.00057384,6.87E-05,-0.001187762,1.416958332,-11.44732189,-21.76092148,0.018544,-0.005612,-0.006344,0
271,16-04-22,2:01:16,-22.20626853,30.90808099,420.9463409,-1.048892498,-2.51402688,2.976644993,0.001258409,0.001290397,3.41E-05,1.179065585,-11.34311485,-21.58698654,0.01708,-0.0061,-0.006832,0
272,16-04-22,2:01:16,-22.19573396,30.91736887,420.942103,-1.050815225,-2.509576082,2.971563101,0.001563514,-0.000236725,-0.000576616,1.186690211,-11.26213074,-21.50197983,0.01708,-0.006344,-0.00732,0
273,16-04-22,2:01:17,-22.18371174,30.92798547,420.9372999,-1.05120647,-2.507742643,2.970081806,0.000647172,0.000985068,0.000339738,1.576272488,-11.28664684,-21.17590141,0.014884,-0.006344,-0.008296,0
274,16-04-22,2:01:17,-22.16968924,30.94033588,420.9316959,-1.047652721,-2.503705263,2.965521097,0.001257107,0.000374311,-0.001492525,1.674412847,-11.15671635,-21.70009613,0.015859999,-0.004392,-0.00854,0
275,16-04-22,2:01:17,-22.15576429,30.95260369,420.9261233,-1.04896903,-2.503684521,2.964852571,-0.000575639,-0.000847606,-0.000270692,1.456176877,-11.33188248,-21.88414955,0.018787999,-0.005368,-0.008052,0
276,16-04-22,2:01:17,-22.14445565,30.96255206,420.9216142,-1.049732447,-2.50698185,2.963052273,0.001562173,-0.001763721,0.00156176,1.377244949,-11.22890472,-21.62780952,0.01708,-0.004636,-0.006344,0
277,16-04-22,2:01:18,-22.13126738,30.97419551,420.9163058,-1.049668193,-2.509859562,2.966614246,0.000340065,-0.000542359,0.000950778,1.533037305,-11.20985889,-21.71417999,0.017811999,-0.006588,-0.008296,0
278,16-04-22,2:01:18,-22.12115878,30.98308984,420.9122832,-1.04964292,-2.510315895,2.96695137,0.000950843,-0.000237047,-0.000881801,1.460020661,-11.37039375,-21.64931297,0.015859999,-0.006344,-0.009272,0
279,16-04-22,2:01:18,-22.11131526,30.99172569,420.9083658,-1.044240952,-2.510475159,2.966159344,0.002172433,0.002206237,3.46E-05,1.523021817,-11.33088779,-21.74950218,0.018056,-0.005612,-0.007808,0
280,16-04-22,2:01:18,-22.10045302,31.00119211,420.9041183,-1.046273112,-2.509263992,2.96498251,0.000339979,-0.0005425,-0.000270702,1.57192874,-11.29900742,-21.7654438,0.015128,-0.00488,-0.005856,0
281,16-04-22,2:01:18,-22.09272009,31.00799527,420.9010318,-1.046795607,-2.509072065,2.964045286,-0.000576271,6.84E-05,3.47E-05,1.610540271,-11.50174809,-21.92361259,0.016592,-0.005368,-0.007564,0
282,16-04-22,2:01:19,-22.08616592,31.0137537,420.8984186,-1.046962261,-2.51043129,2.965708256,0.000645407,-0.00054246,-0.001186904,1.531339407,-11.5468874,-22.24256897,0.016592,-0.004392,-0.008052,0
283,16-04-22,2:01:19,-22.07842931,31.02055795,420.8953302,-1.046813726,-2.514868736,2.969598532,-0.000270551,0.000984482,-0.000881366,1.153521776,-10.91545391,-21.36151314,0.016348001,-0.004636,-0.00732,0
284,16-04-22,2:01:19,-22.07030235,31.02781318,420.8919907,-1.045954227,-2.516158581,2.968739986,0.000339918,6.82E-05,-0.00027048,1.122145534,-11.0307045,-21.71845818,0.016835999,-0.005124,-0.006588,0
285,16-04-22,2:01:19,-22.05844627,31.03818804,420.8873003,-1.049701691,-2.511027813,2.961946011,-0.00088165,0.002206008,-0.000270601,1.123842835,-11.05421543,-21.55688858,0.015128,-0.00488,-0.00732,0
286,16-04-22,2:01:19,-22.04732242,31.0480093,420.882826,-1.052459717,-2.508192062,2.958742142,0.000645529,-0.000237476,-0.000270565,1.336922646,-11.4526701,-21.48243523,0.016592,-0.0061,-0.00732,0
287,16-04-22,2:01:20,-22.03683172,31.05719549,420.8786668,-1.051997662,-2.508127451,2.958870173,-0.002713781,-0.00054283,-0.000881182,1.283167601,-11.40336037,-21.45083427,0.018300001,-0.005612,-0.007564,0
288,16-04-22,2:01:20,-22.02671092,31.06609512,420.8746166,-1.051264524,-2.511978626,2.967130184,3.50E-05,6.77E-05,0.000340451,1.130747437,-11.30747986,-21.22535706,0.016348001,-0.005612,-0.006588,0
289,16-04-22,2:01:20,-22.01547646,31.07595709,420.8701523,-1.051950932,-2.505997419,2.958756208,-0.00149226,0.000678515,0.000340365,1.228827834,-11.12533092,-21.24943352,0.01708,-0.006588,-0.006588,0
290,16-04-22,2:01:20,-22.00310378,31.08681154,420.8652275,-1.052413344,-2.513884783,2.968601942,-0.000270857,0.000372941,0.001256542,1.247953176,-11.27675533,-21.37191963,0.017568,-0.0061,-0.00854,0
291,16-04-22,2:01:21,-21.99221967,31.09636894,420.860892,-1.052233219,-2.520457506,2.977452755,3.44E-05,0.000372988,0.00156165,1.199066401,-11.79376793,-21.55485344,0.01708,-0.005612,-0.006832,0
292,16-04-22,2:01:21,-21.98175298,31.10553062,420.8567419,-1.054172754,-2.520055056,2.978956223,-0.000576446,-0.000237771,-0.00057603,1.131082058,-11.46800995,-21.43386269,0.019032,-0.005612,-0.008296,0
293,16-04-22,2:01:21,-21.97132309,31.11470431,420.8525437,-1.0543046,-2.518825293,2.978621483,0.000340199,0.001289134,3.50E-05,1.081264853,-11.56929207,-21.20377541,0.017811999,-0.005612,-0.007808,0
294,16-04-22,2:01:21,-21.96053631,31.1241839,420.848258,-1.052471757,-2.519549608,2.980796337,3.43E-05,0.000677799,3.49E-05,1.21562469,-11.15649605,-21.01029587,0.016592,-0.005856,-0.007808,0
295,16-04-22,2:01:21,-21.94926713,31.13404518,420.8437951,-1.048838377,-2.520822287,2.982402325,0.001866823,-0.000543943,0.001561882,1.283620596,-11.14544106,-21.09378433,0.015616,-0.005368,-0.00732,0
296,16-04-22,2:01:22,-21.93687769,31.1449088,420.8388655,-1.045632839,-2.520558119,2.981996298,0.001866674,0.000983027,0.002172345,1.19856894,-11.44378471,-21.91443253,0.016592,-0.005368,-0.0061,0
297,16-04-22,2:01:22,-21.92640217,31.15406906,420.834716,-1.046097159,-2.522577524,2.98396945,3.42E-05,0.001288489,-0.000270897,1.312000155,-11.38487816,-21.65768814,0.0122,-0.004148,-0.007564,0
